[
{"country":"az","city":"abdynly","accentcity":"Abdynly","region":66.0,"population":"","latitude":38.9219437,"longitude":48.1575},
{"country":"az","city":"abilca","accentcity":"Abilca","region":43.0,"population":"","latitude":39.2197227,"longitude":46.7067375},
{"country":"az","city":"abil'dzha","accentcity":"Abil'dzha","region":43.0,"population":"","latitude":39.2197227,"longitude":46.7067375},
{"country":"az","city":"abilyataq","accentcity":"Abilyataq","region":60.0,"population":"","latitude":41.5403023,"longitude":48.8879738},
{"country":"az","city":"abish-kyand","accentcity":"Abish-Kyand","region":13.0,"population":"","latitude":39.4333344,"longitude":48.45},
{"country":"az","city":"abjit","accentcity":"Abjit","region":10.0,"population":"","latitude":41.72278,"longitude":46.23528},
{"country":"az","city":"ablakh","accentcity":"Ablakh","region":62.0,"population":"","latitude":40.501667,"longitude":46.4294434},
{"country":"az","city":"abrakunis","accentcity":"Abrakunis","region":35.0,"population":"","latitude":39.1363258,"longitude":45.63744},
{"country":"az","city":"abraqunis","accentcity":"Abraqunis","region":35.0,"population":"","latitude":39.1363258,"longitude":45.63744},
{"country":"az","city":"abrix","accentcity":"Abrix","region":38.0,"population":"","latitude":41.036972,"longitude":47.74048},
{"country":"az","city":"abushabad","accentcity":"Abushabad","region":15.0,"population":"","latitude":39.2573242,"longitude":48.4045868},
{"country":"az","city":"abush-abad","accentcity":"Abush-Abad","region":15.0,"population":"","latitude":39.2573242,"longitude":48.4045868},
{"country":"az","city":"abyshabad","accentcity":"Abyshabad","region":15.0,"population":"","latitude":39.2573242,"longitude":48.4045868},
{"country":"az","city":"abyshbeyli","accentcity":"Abyshbeyli","region":2.0,"population":"","latitude":40.18111,"longitude":47.6627769},
{"country":"az","city":"acami","accentcity":"Acami","region":68.0,"population":"","latitude":40.70028,"longitude":47.1889534},
{"country":"az","city":"acaxur","accentcity":"Acaxur","region":44.0,"population":"","latitude":41.4566879,"longitude":48.18889},
{"country":"az","city":"acaxuroba","accentcity":"Acaxuroba","region":44.0,"population":"","latitude":41.7275848,"longitude":48.5231476},
{"country":"az","city":"achakaya","accentcity":"Achakaya","region":62.0,"population":"","latitude":40.65778,"longitude":46.22769},
{"country":"az","city":"acidara","accentcity":"Acidara","region":50.0,"population":"","latitude":40.5248375,"longitude":48.7432823},
{"country":"az","city":"aciliqbina","accentcity":"Aciliqbina","region":10.0,"population":"","latitude":41.6806221,"longitude":46.2641335},
{"country":"az","city":"adakar","accentcity":"Adakar","region":17.0,"population":"","latitude":41.3330574,"longitude":49.0727768},
{"country":"az","city":"adigozalbegly","accentcity":"Adigozalbegly","region":3.0,"population":"","latitude":40.1011124,"longitude":46.8205566},
{"country":"az","city":"adnali","accentcity":"Adnali","region":15.0,"population":"","latitude":39.2884979,"longitude":48.3995743},
{"country":"az","city":"adnali","accentcity":"Adnali","region":50.0,"population":"","latitude":40.5713234,"longitude":48.6186256},
{"country":"az","city":"adnaly","accentcity":"Adnaly","region":15.0,"population":"","latitude":39.2884979,"longitude":48.3995743},
{"country":"az","city":"adnaly","accentcity":"Adnaly","region":50.0,"population":"","latitude":40.5713234,"longitude":48.6186256},
{"country":"az","city":"adshikabul","accentcity":"Adshikabul","region":23.0,"population":"","latitude":40.0408363,"longitude":48.9445076},
{"country":"az","city":"adur","accentcity":"Adur","region":42.0,"population":"","latitude":41.1228371,"longitude":48.30022},
{"country":"az","city":"adynaly","accentcity":"Adynaly","region":15.0,"population":"","latitude":39.2884979,"longitude":48.3995743},
{"country":"az","city":"adzha-kabul","accentcity":"Adzha-Kabul","region":23.0,"population":"","latitude":40.0408363,"longitude":48.9445076},
{"country":"az","city":"adzhakend","accentcity":"Adzhakend","region":62.0,"population":"","latitude":40.5164,"longitude":46.32284},
{"country":"az","city":"adzhakhur","accentcity":"Adzhakhur","region":44.0,"population":"","latitude":41.4566879,"longitude":48.18889},
{"country":"az","city":"adzhakhuroba","accentcity":"Adzhakhuroba","region":44.0,"population":"","latitude":41.7275848,"longitude":48.5231476},
{"country":"az","city":"adzhami","accentcity":"Adzhami","region":68.0,"population":"","latitude":40.70028,"longitude":47.1889534},
{"country":"az","city":"adzhidere","accentcity":"Adzhidere","region":50.0,"population":"","latitude":40.5248375,"longitude":48.7432823},
{"country":"az","city":"adzhikabul","accentcity":"Adzhikabul","region":23.0,"population":"","latitude":40.0408363,"longitude":48.9445076},
{"country":"az","city":"adzhikadiry","accentcity":"Adzhikadiry","region":50.0,"population":"","latitude":40.4139442,"longitude":48.5643578},
{"country":"az","city":"adzhikarakashly","accentcity":"Adzhikarakashly","region":17.0,"population":"","latitude":41.3417778,"longitude":49.0682678},
{"country":"az","city":"adzhikend","accentcity":"Adzhikend","region":62.0,"population":"","latitude":40.5164,"longitude":46.32284},
{"country":"az","city":"adzhily","accentcity":"Adzhily","region":24.0,"population":"","latitude":40.0833321,"longitude":47.88333},
{"country":"az","city":"adzhished","accentcity":"Adzhished","region":62.0,"population":"","latitude":40.4861221,"longitude":46.35256},
{"country":"az","city":"adzhiyely","accentcity":"Adzhiyely","region":1.0,"population":"","latitude":40.28663,"longitude":49.07591},
{"country":"az","city":"adzhkhur","accentcity":"Adzhkhur","region":44.0,"population":"","latitude":41.4566879,"longitude":48.18889},
{"country":"az","city":"adzhylygbina","accentcity":"Adzhylygbina","region":10.0,"population":"","latitude":41.6806221,"longitude":46.2641335},
{"country":"az","city":"adzhylykhbina","accentcity":"Adzhylykhbina","region":10.0,"population":"","latitude":41.6806221,"longitude":46.2641335},
{"country":"az","city":"afandilar","accentcity":"Afandilar","region":14.0,"population":"","latitude":39.4347229,"longitude":47.0493622},
{"country":"az","city":"afandilar","accentcity":"Afandilar","region":43.0,"population":"","latitude":39.3277779,"longitude":46.7041664},
{"country":"az","city":"afatli","accentcity":"Afatli","region":3.0,"population":"","latitude":40.0093842,"longitude":47.0857964},
{"country":"az","city":"afatlu","accentcity":"Afatlu","region":61.0,"population":"","latitude":39.81972,"longitude":46.77889},
{"country":"az","city":"afatly","accentcity":"Afatly","region":3.0,"population":"","latitude":40.0093842,"longitude":47.0857964},
{"country":"az","city":"afurca","accentcity":"Afurca","region":42.0,"population":"","latitude":41.15882,"longitude":48.6197052},
{"country":"az","city":"afurdzha","accentcity":"Afurdzha","region":42.0,"population":"","latitude":41.15882,"longitude":48.6197052},
{"country":"az","city":"agabagi","accentcity":"Agabagi","region":71.0,"population":"","latitude":40.1105576,"longitude":47.8130569},
{"country":"az","city":"agabagy","accentcity":"Agabagy","region":71.0,"population":"","latitude":40.1105576,"longitude":47.8130569},
{"country":"az","city":"agabayli","accentcity":"Agabayli","region":2.0,"population":"","latitude":40.0584755,"longitude":47.4022255},
{"country":"az","city":"agabayli","accentcity":"Agabayli","region":6.0,"population":"","latitude":40.4301453,"longitude":48.43306},
{"country":"az","city":"agabayyali","accentcity":"Agabayyali","region":57.0,"population":"","latitude":40.2079926,"longitude":46.7925034},
{"country":"az","city":"agabekalendzh","accentcity":"Agabekalendzh","region":57.0,"population":"","latitude":40.2079926,"longitude":46.7925034},
{"country":"az","city":"agabeyli","accentcity":"Agabeyli","region":2.0,"population":"","latitude":40.0584755,"longitude":47.4022255},
{"country":"az","city":"agabeyli","accentcity":"Agabeyli","region":6.0,"population":"","latitude":40.5,"longitude":48.4166679},
{"country":"az","city":"agacanli","accentcity":"Agacanli","region":23.0,"population":"","latitude":39.98195,"longitude":48.85221},
{"country":"az","city":"agachkala","accentcity":"Agachkala","region":58.0,"population":"","latitude":40.7997437,"longitude":45.71802},
{"country":"az","city":"agacqala","accentcity":"Agacqala","region":58.0,"population":"","latitude":40.7997437,"longitude":45.71802},
{"country":"az","city":"agadzhaly","accentcity":"Agadzhaly","region":24.0,"population":"","latitude":40.0666656,"longitude":48.15},
{"country":"az","city":"ali-madatly","accentcity":"Ali-Madatly","region":62.0,"population":"","latitude":40.76278,"longitude":46.3083344},
{"country":"az","city":"alimadtli","accentcity":"Alimadtli","region":62.0,"population":"","latitude":40.76278,"longitude":46.3083344},
{"country":"az","city":"alimamed-kishlagi","accentcity":"Alimamed-Kishlagi","region":35.0,"population":"","latitude":39.4682045,"longitude":45.7002068},
{"country":"az","city":"ali-mammet-arab","accentcity":"Ali-Mammet-Arab","region":53.0,"population":"","latitude":41.0730553,"longitude":49.1488876},
{"country":"az","city":"alimardanli","accentcity":"Alimardanli","region":58.0,"population":"","latitude":41.039608,"longitude":45.6734962},
{"country":"az","city":"alimardanly","accentcity":"Alimardanly","region":58.0,"population":"","latitude":41.039608,"longitude":45.6734962},
{"country":"az","city":"ali-muratly","accentcity":"Ali-Muratly","region":46.0,"population":"","latitude":39.69361,"longitude":48.8258324},
{"country":"az","city":"alinagilar","accentcity":"Alinagilar","region":19.0,"population":"","latitude":40.4833336,"longitude":45.75},
{"country":"az","city":"alinagylar","accentcity":"Alinagylar","region":19.0,"population":"","latitude":40.4833336,"longitude":45.75},
{"country":"az","city":"alinazarli","accentcity":"Alinazarli","region":12.0,"population":"","latitude":39.787262,"longitude":47.6970749},
{"country":"az","city":"alincali","accentcity":"Alincali","region":52.0,"population":"","latitude":40.7666664,"longitude":46.4},
{"country":"az","city":"aliqasimli","accentcity":"Aliqasimli","region":15.0,"population":"","latitude":39.28583,"longitude":48.455555},
{"country":"az","city":"aliqulu","accentcity":"Aliqulu","region":28.0,"population":"","latitude":39.7485847,"longitude":46.40998},
{"country":"az","city":"aliqulular","accentcity":"Aliqulular","region":24.0,"population":"","latitude":39.9063034,"longitude":47.929142},
{"country":"az","city":"aliquluusagi","accentcity":"Aliquluusagi","region":43.0,"population":"","latitude":39.4521065,"longitude":46.47498},
{"country":"az","city":"alirvalar","accentcity":"Alirvalar","region":26.0,"population":"","latitude":39.9787674,"longitude":46.20312},
{"country":"az","city":"alirzalar","accentcity":"Alirzalar","region":26.0,"population":"","latitude":39.9787674,"longitude":46.20312},
{"country":"az","city":"alishanly","accentcity":"Alishanly","region":32.0,"population":"","latitude":39.0666656,"longitude":48.7333336},
{"country":"az","city":"alishar","accentcity":"Alishar","region":35.0,"population":"","latitude":39.53649,"longitude":44.9261436},
{"country":"az","city":"alisher","accentcity":"Alisher","region":35.0,"population":"","latitude":39.53649,"longitude":44.9261436},
{"country":"az","city":"alisoltanli","accentcity":"Alisoltanli","region":45.0,"population":"","latitude":39.9005547,"longitude":48.32306},
{"country":"az","city":"alisoltanly","accentcity":"Alisoltanly","region":45.0,"population":"","latitude":39.9005547,"longitude":48.32306},
{"country":"az","city":"aliusagi","accentcity":"Aliusagi","region":52.0,"population":"","latitude":40.6945038,"longitude":46.47585},
{"country":"az","city":"aliushagy","accentcity":"Aliushagy","region":52.0,"population":"","latitude":40.6945038,"longitude":46.47585},
{"country":"az","city":"aliyanli","accentcity":"Aliyanli","region":11.0,"population":"","latitude":40.34124,"longitude":47.13168},
{"country":"az","city":"aliyanly","accentcity":"Aliyanly","region":11.0,"population":"","latitude":40.34124,"longitude":47.13168},
{"country":"az","city":"aliyar","accentcity":"Aliyar","region":47.0,"population":"","latitude":41.004734,"longitude":47.2531433},
{"country":"az","city":"aliyetmazli","accentcity":"Aliyetmazli","region":24.0,"population":"","latitude":40.1269073,"longitude":48.032177},
{"country":"az","city":"alkhanly","accentcity":"Alkhanly","region":18.0,"population":"","latitude":39.60204,"longitude":47.3846245},
{"country":"az","city":"alkhasava pervoye","accentcity":"Alkhasava Pervoye","region":22.0,"population":"","latitude":40.5779152,"longitude":47.9491119},
{"country":"az","city":"alkhasava vtoroye","accentcity":"Alkhasava Vtoroye","region":22.0,"population":"","latitude":40.5634766,"longitude":47.9757729},
{"country":"az","city":"alkhasly","accentcity":"Alkhasly","region":28.0,"population":"","latitude":39.7417831,"longitude":46.3482},
{"country":"az","city":"allahk'uchular","accentcity":"Allahk'uchular","region":55.0,"population":"","latitude":39.7480545,"longitude":46.63147},
{"country":"az","city":"allahmadadli","accentcity":"Allahmadadli","region":24.0,"population":"","latitude":40.08483,"longitude":48.11137},
{"country":"az","city":"allahqulular","accentcity":"Allahqulular","region":55.0,"population":"","latitude":39.7480545,"longitude":46.63147},
{"country":"az","city":"allahyarli","accentcity":"Allahyarli","region":17.0,"population":"","latitude":41.24278,"longitude":48.97389},
{"country":"az","city":"allahyarli","accentcity":"Allahyarli","region":53.0,"population":"","latitude":40.9516335,"longitude":48.978054},
{"country":"az","city":"allakhyarly","accentcity":"Allakhyarly","region":53.0,"population":"","latitude":40.9516335,"longitude":48.978054},
{"country":"az","city":"allar","accentcity":"Allar","region":15.0,"population":"","latitude":39.31602,"longitude":48.5373726},
{"country":"az","city":"allar","accentcity":"Allar","region":66.0,"population":"","latitude":38.7965,"longitude":48.23402},
{"country":"az","city":"allary","accentcity":"Allary","region":15.0,"population":"","latitude":39.31602,"longitude":48.5373726},
{"country":"az","city":"alli-mammed-'arab'","accentcity":"Alli-Mammed-'Arab'","region":53.0,"population":"","latitude":41.0730553,"longitude":49.1488876},
{"country":"az","city":"allyagi","accentcity":"Allyagi","region":35.0,"population":"","latitude":39.1743279,"longitude":45.8920975},
{"country":"az","city":"allykend","accentcity":"Allykend","region":26.0,"population":"","latitude":40.1304474,"longitude":46.03929},
{"country":"az","city":"almagovlu","accentcity":"Almagovlu","region":53.0,"population":"","latitude":40.9805679,"longitude":48.9456024},
{"country":"az","city":"almakolu","accentcity":"Almakolu","region":53.0,"population":"","latitude":40.9805679,"longitude":48.9456024},
{"country":"az","city":"almakuyuly","accentcity":"Almakuyuly","region":53.0,"population":"","latitude":40.9805679,"longitude":48.9456024},
{"country":"az","city":"almali","accentcity":"Almali","region":16.0,"population":"","latitude":40.416008,"longitude":46.18889},
{"country":"az","city":"almali","accentcity":"Almali","region":39.0,"population":"","latitude":41.34139,"longitude":46.7591667},
{"country":"az","city":"almali","accentcity":"Almali","region":64.0,"population":"","latitude":39.97049,"longitude":46.6869049},
{"country":"az","city":"almaliq","accentcity":"Almaliq","region":26.0,"population":"","latitude":40.0938873,"longitude":46.24222},
{"country":"az","city":"almalitala","accentcity":"Almalitala","region":58.0,"population":"","latitude":40.6599846,"longitude":45.6849365},
{"country":"az","city":"almalo","accentcity":"Almalo","region":39.0,"population":"","latitude":41.34139,"longitude":46.7591667},
{"country":"az","city":"almaly","accentcity":"Almaly","region":16.0,"population":"","latitude":40.416008,"longitude":46.18889},
{"country":"az","city":"almaly","accentcity":"Almaly","region":39.0,"population":"","latitude":41.34139,"longitude":46.7591667},
{"country":"az","city":"almalytala","accentcity":"Almalytala","region":58.0,"population":"","latitude":40.6599846,"longitude":45.6849365},
{"country":"az","city":"almu","accentcity":"Almu","region":31.0,"population":"","latitude":38.7568474,"longitude":48.5400734},
{"country":"az","city":"alolar","accentcity":"Alolar","region":26.0,"population":"","latitude":40.095,"longitude":46.00956},
{"country":"az","city":"alpan","accentcity":"Alpan","region":42.0,"population":"","latitude":41.3866234,"longitude":48.4301},
{"country":"az","city":"alpaut","accentcity":"Alpaut","region":6.0,"population":"","latitude":40.5567055,"longitude":48.5586777},
{"country":"az","city":"alpaut","accentcity":"Alpaut","region":11.0,"population":"","latitude":40.32639,"longitude":47.205},
{"country":"az","city":"alpaut","accentcity":"Alpaut","region":22.0,"population":"","latitude":40.474926,"longitude":47.9326935},
{"country":"az","city":"alpaut","accentcity":"Alpaut","region":28.0,"population":"","latitude":39.7563324,"longitude":46.3697166},
{"country":"az","city":"alpaut","accentcity":"Alpaut","region":59.0,"population":"","latitude":40.4465065,"longitude":47.6076775},
{"country":"az","city":"asaqi xuc","accentcity":"Asaqi Xuc","region":42.0,"population":"","latitude":41.4408073,"longitude":48.52152},
{"country":"az","city":"asatly","accentcity":"Asatly","region":46.0,"population":"","latitude":40.0113945,"longitude":48.52125},
{"country":"az","city":"aschurly","accentcity":"Aschurly","region":40.0,"population":"","latitude":41.1413879,"longitude":45.26611},
{"country":"az","city":"asgarabad","accentcity":"Asgarabad","region":13.0,"population":"","latitude":39.4292336,"longitude":48.5710526},
{"country":"az","city":"asgaran","accentcity":"Asgaran","region":64.0,"population":"","latitude":39.93667,"longitude":46.83278},
{"country":"az","city":"asgarbayli","accentcity":"Asgarbayli","region":46.0,"population":"","latitude":40.0316658,"longitude":48.3930664},
{"country":"az","city":"ashaga-abdurakhmanly","accentcity":"Ashaga-Abdurakhmanly","region":18.0,"population":"","latitude":39.5271568,"longitude":47.26691},
{"country":"az","city":"ashaga agaly","accentcity":"Ashaga Agaly","region":69.0,"population":"","latitude":39.175808,"longitude":46.77489},
{"country":"az","city":"ashaga agdzhayazy","accentcity":"Ashaga Agdzhayazy","region":4.0,"population":"","latitude":40.6951561,"longitude":47.5072365},
{"country":"az","city":"ashaga alibeyli","accentcity":"Ashaga Alibeyli","region":69.0,"population":"","latitude":39.1554375,"longitude":46.7494431},
{"country":"az","city":"ashaga alkhanly","accentcity":"Ashaga Alkhanly","region":18.0,"population":"","latitude":39.60204,"longitude":47.3846245},
{"country":"az","city":"ashaga alpout","accentcity":"Ashaga Alpout","region":59.0,"population":"","latitude":40.4465065,"longitude":47.6076775},
{"country":"az","city":"ashaga alyaz","accentcity":"Ashaga Alyaz","region":53.0,"population":"","latitude":40.9558868,"longitude":48.9835968},
{"country":"az","city":"ashaga andamish","accentcity":"Ashaga Andamish","region":35.0,"population":"","latitude":38.9252167,"longitude":46.03001},
{"country":"az","city":"ashaga angelan","accentcity":"Ashaga Angelan","region":63.0,"population":"","latitude":40.8166656,"longitude":49.0333328},
{"country":"az","city":"ashaga-aylis","accentcity":"Ashaga-Aylis","region":35.0,"population":"","latitude":38.93079,"longitude":45.9895935},
{"country":"az","city":"ashaga-ayply","accentcity":"Ashaga-Ayply","region":58.0,"population":"","latitude":40.9347229,"longitude":45.82611},
{"country":"az","city":"ashaga-buzgov","accentcity":"Ashaga-Buzgov","region":35.0,"population":"","latitude":39.5123,"longitude":45.40036},
{"country":"az","city":"ashaga chardakhly","accentcity":"Ashaga Chardakhly","region":70.0,"population":"","latitude":41.5499458,"longitude":46.3501625},
{"country":"az","city":"ashaga-danzik","accentcity":"Ashaga-Danzik","region":35.0,"population":"","latitude":39.70116,"longitude":45.11591},
{"country":"az","city":"ashaga dashagi","accentcity":"Ashaga Dashagi","region":37.0,"population":"","latitude":41.0121346,"longitude":47.32164},
{"country":"az","city":"ashaga dasharkh","accentcity":"Ashaga Dasharkh","region":35.0,"population":"","latitude":39.52361,"longitude":45.0355568},
{"country":"az","city":"ashaga dzhalgan","accentcity":"Ashaga Dzhalgan","region":17.0,"population":"","latitude":41.1,"longitude":48.95},
{"country":"az","city":"ashaga fyndygan","accentcity":"Ashaga Fyndygan","region":53.0,"population":"","latitude":40.9530563,"longitude":49.0380554},
{"country":"az","city":"ashaga geali","accentcity":"Ashaga Geali","region":69.0,"population":"","latitude":39.1433334,"longitude":46.50611},
{"country":"az","city":"ashaga-geynyuk","accentcity":"Ashaga-Geynyuk","region":47.0,"population":"","latitude":41.28478,"longitude":47.0227165},
{"country":"az","city":"ashaga karadzhanly","accentcity":"Ashaga Karadzhanly","region":26.0,"population":"","latitude":40.0418,"longitude":46.05035},
{"country":"az","city":"ashaga karakyuvendikly","accentcity":"Ashaga Karakyuvendikly","region":24.0,"population":"","latitude":39.7191658,"longitude":47.9169426},
{"country":"az","city":"ashaga karkhun","accentcity":"Ashaga Karkhun","region":67.0,"population":"","latitude":40.58284,"longitude":47.2133331},
{"country":"az","city":"ashaga kel'dek","accentcity":"Ashaga Kel'dek","region":47.0,"population":"","latitude":41.0477066,"longitude":47.2814},
{"country":"az","city":"ashaga khodzham sagly","accentcity":"Ashaga Khodzham Sagly","region":43.0,"population":"","latitude":39.31333,"longitude":46.5533333},
{"country":"az","city":"ashaga khuch","accentcity":"Ashaga Khuch","region":42.0,"population":"","latitude":41.4408073,"longitude":48.52152},
{"country":"az","city":"ashaga-klishbag","accentcity":"Ashaga-Klishbag","region":64.0,"population":"","latitude":39.9459,"longitude":46.8301239},
{"country":"az","city":"ashaga-klishbog","accentcity":"Ashaga-Klishbog","region":64.0,"population":"","latitude":39.9459,"longitude":46.8301239},
{"country":"az","city":"ashaga kolgaty","accentcity":"Ashaga Kolgaty","region":4.0,"population":"","latitude":40.66644,"longitude":47.4692574},
{"country":"az","city":"ashaga kyrakhkesaman","accentcity":"Ashaga Kyrakhkesaman","region":5.0,"population":"","latitude":41.212616,"longitude":45.4616928},
{"country":"az","city":"ashaga-kyungyut","accentcity":"Ashaga-Kyungyut","region":47.0,"population":"","latitude":41.0643768,"longitude":47.2564621},
{"country":"az","city":"ashaga-laiski","accentcity":"Ashaga-Laiski","region":47.0,"population":"","latitude":41.28981,"longitude":46.9781075},
{"country":"az","city":"ashaga-layski","accentcity":"Ashaga-Layski","region":47.0,"population":"","latitude":41.28981,"longitude":46.9781075},
{"country":"az","city":"ashaga-leger","accentcity":"Ashaga-Leger","region":44.0,"population":"","latitude":41.4969635,"longitude":48.4521},
{"country":"az","city":"ashaga malakh","accentcity":"Ashaga Malakh","region":39.0,"population":"","latitude":41.3699875,"longitude":46.9876328},
{"country":"az","city":"ashaga maral'yan","accentcity":"Ashaga Maral'yan","region":14.0,"population":"","latitude":39.34718,"longitude":47.22095},
{"country":"az","city":"ashaga molly","accentcity":"Ashaga Molly","region":43.0,"population":"","latitude":39.3044052,"longitude":46.697216},
{"country":"az","city":"ashaga-myul'kyuli","accentcity":"Ashaga-Myul'kyuli","region":58.0,"population":"","latitude":41.0548668,"longitude":45.6164627},
{"country":"az","city":"ashaga neymetabad","accentcity":"Ashaga Neymetabad","region":4.0,"population":"","latitude":40.6837273,"longitude":47.3016853},
{"country":"az","city":"ashaga rafadely","accentcity":"Ashaga Rafadely","region":12.0,"population":"","latitude":39.47994,"longitude":47.1338844},
{"country":"az","city":"ashaga-rameshin","accentcity":"Ashaga-Rameshin","region":35.0,"population":"","latitude":39.4942627,"longitude":45.6079674},
{"country":"az","city":"ashaga-salakhly","accentcity":"Ashaga-Salakhly","region":40.0,"population":"","latitude":41.20953,"longitude":45.3388748},
{"country":"az","city":"ashaga-seidimly","accentcity":"Ashaga-Seidimly","region":57.0,"population":"","latitude":40.4880562,"longitude":46.9272232},
{"country":"az","city":"ashaga seyd-akhmedly","accentcity":"Ashaga Seyd-Akhmedly","region":18.0,"population":"","latitude":39.57482,"longitude":47.307766},
{"country":"az","city":"ashaga shabalyt","accentcity":"Ashaga Shabalyt","region":47.0,"population":"","latitude":41.28761,"longitude":47.087265},
{"country":"az","city":"ashaga-shil'yan","accentcity":"Ashaga-Shil'yan","region":27.0,"population":"","latitude":40.32752,"longitude":48.01087},
{"country":"az","city":"ashaga-sura","accentcity":"Ashaga-Sura","region":36.0,"population":"","latitude":39.48082,"longitude":49.00817},
{"country":"az","city":"ashaga-veysanli","accentcity":"Ashaga-Veysanli","region":18.0,"population":"","latitude":39.7068558,"longitude":47.2286568},
{"country":"az","city":"ashaga yakublu","accentcity":"Ashaga Yakublu","region":37.0,"population":"","latitude":40.9226341,"longitude":47.4613533},
{"country":"az","city":"ashaga yemazlu","accentcity":"Ashaga Yemazlu","region":69.0,"population":"","latitude":39.20311,"longitude":46.6076279},
{"country":"az","city":"ashaga zeid","accentcity":"Ashaga Zeid","region":60.0,"population":"","latitude":41.38094,"longitude":48.7874031},
{"country":"az","city":"ashaga-zeyd","accentcity":"Ashaga-Zeyd","region":60.0,"population":"","latitude":41.38094,"longitude":48.7874031},
{"country":"az","city":"ashaga-zeyzit","accentcity":"Ashaga-Zeyzit","region":47.0,"population":"","latitude":41.0930557,"longitude":47.21162},
{"country":"az","city":"ashaghli","accentcity":"Ashaghli","region":62.0,"population":"","latitude":40.53542,"longitude":46.3365059},
{"country":"az","city":"ashaghy abdurahmanly","accentcity":"Ashaghy Abdurahmanly","region":18.0,"population":"","latitude":39.5271568,"longitude":47.26691},
{"country":"az","city":"ashaghy-jibik'li","accentcity":"Ashaghy-Jibik'li","region":43.0,"population":"","latitude":39.35472,"longitude":46.4619446},
{"country":"az","city":"ashaghy veysali","accentcity":"Ashaghy Veysali","region":18.0,"population":"","latitude":39.7068558,"longitude":47.2286568},
{"country":"az","city":"ashagi-dashagyl","accentcity":"Ashagi-Dashagyl","region":37.0,"population":"","latitude":41.0121346,"longitude":47.32164},
{"country":"az","city":"bairamli","accentcity":"Bairamli","region":19.0,"population":"","latitude":40.5,"longitude":45.8333321},
{"country":"az","city":"bakharly","accentcity":"Bakharly","region":3.0,"population":"","latitude":40.15744,"longitude":47.08277},
{"country":"az","city":"bakharly","accentcity":"Bakharly","region":69.0,"population":"","latitude":39.01899,"longitude":46.6748},
{"country":"az","city":"bakhchakyurd","accentcity":"Bakhchakyurd","region":21.0,"population":"","latitude":40.73611,"longitude":46.5069427},
{"country":"az","city":"bakhliin","accentcity":"Bakhliin","region":25.0,"population":"","latitude":40.6730576,"longitude":48.30321},
{"country":"az","city":"bakhliyan","accentcity":"Bakhliyan","region":25.0,"population":"","latitude":40.6730576,"longitude":48.30321},
{"country":"az","city":"bakhrud","accentcity":"Bakhrud","region":35.0,"population":"","latitude":39.075592,"longitude":45.86513},
{"country":"az","city":"bakhshily","accentcity":"Bakhshily","region":63.0,"population":"","latitude":40.89959,"longitude":48.9790039},
{"country":"az","city":"bakhshyly","accentcity":"Bakhshyly","region":63.0,"population":"","latitude":40.89959,"longitude":48.9790039},
{"country":"az","city":"bakhtiyarly","accentcity":"Bakhtiyarly","region":43.0,"population":"","latitude":39.3871231,"longitude":46.5346832},
{"country":"az","city":"bakhyarkiyatag","accentcity":"Bakhyarkiyatag","region":59.0,"population":"","latitude":40.44278,"longitude":47.47139},
{"country":"az","city":"baki","accentcity":"Baki","region":9.0,"population":"","latitude":40.39528,"longitude":49.88222},
{"country":"az","city":"bakikhanov","accentcity":"Bakikhanov","region":9.0,"population":"","latitude":40.4216652,"longitude":49.9644432},
{"country":"az","city":"bakixanov","accentcity":"Bakixanov","region":9.0,"population":"","latitude":40.4216652,"longitude":49.9644432},
{"country":"az","city":"bakkal","accentcity":"Bakkal","region":47.0,"population":"","latitude":41.3376427,"longitude":46.9902763},
{"country":"az","city":"bakkally","accentcity":"Bakkally","region":58.0,"population":"","latitude":40.7355843,"longitude":45.6141129},
{"country":"az","city":"bakla","accentcity":"Bakla","region":41.0,"population":"","latitude":40.6103477,"longitude":48.8995247},
{"country":"az","city":"baku","accentcity":"Baku","region":9.0,"population":1116513.0,"latitude":40.39528,"longitude":49.88222},
{"country":"az","city":"baku-baladshary","accentcity":"Baku-Baladshary","region":9.0,"population":"","latitude":40.4385,"longitude":49.8137436},
{"country":"az","city":"baky","accentcity":"Baky","region":9.0,"population":"","latitude":40.39528,"longitude":49.88222},
{"country":"az","city":"bala bahmanli","accentcity":"Bala Bahmanli","region":18.0,"population":"","latitude":39.5666656,"longitude":47.5833321},
{"country":"az","city":"balaban","accentcity":"Balaban","region":9.0,"population":"","latitude":40.4634438,"longitude":49.9189339},
{"country":"az","city":"balabant","accentcity":"Balabant","region":31.0,"population":"","latitude":38.7374954,"longitude":48.4264679},
{"country":"az","city":"bala begmenli","accentcity":"Bala Begmenli","region":18.0,"population":"","latitude":39.5666656,"longitude":47.5833321},
{"country":"az","city":"bala-bekhmanli","accentcity":"Bala-Bekhmanli","region":18.0,"population":"","latitude":39.5666656,"longitude":47.5833321},
{"country":"az","city":"bala cafarli","accentcity":"Bala Cafarli","region":40.0,"population":"","latitude":41.0189857,"longitude":45.2523651},
{"country":"az","city":"balaca hamya","accentcity":"Balaca Hamya","region":53.0,"population":"","latitude":41.0746155,"longitude":49.15113},
{"country":"az","city":"balachany","accentcity":"Balachany","region":9.0,"population":"","latitude":40.4634438,"longitude":49.9189339},
{"country":"az","city":"bala-dekkya","accentcity":"Bala-Dekkya","region":71.0,"population":"","latitude":40.1991653,"longitude":47.74361},
{"country":"az","city":"baladjary","accentcity":"Baladjary","region":9.0,"population":"","latitude":40.4385,"longitude":49.8137436},
{"country":"az","city":"balady","accentcity":"Balady","region":29.0,"population":"","latitude":38.8904152,"longitude":48.7658348},
{"country":"az","city":"baladzary","accentcity":"Baladzary","region":9.0,"population":"","latitude":40.4634438,"longitude":49.9189339},
{"country":"az","city":"baladzha bozayran","accentcity":"Baladzha Bozayran","region":15.0,"population":"","latitude":39.3286476,"longitude":48.32524},
{"country":"az","city":"baladzha-gam'ya","accentcity":"Baladzha-Gam'ya","region":53.0,"population":"","latitude":41.0746155,"longitude":49.15113},
{"country":"az","city":"baladzhali","accentcity":"Baladzhali","region":36.0,"population":"","latitude":39.4150352,"longitude":49.0766335},
{"country":"az","city":"baladzhary","accentcity":"Baladzhary","region":9.0,"population":"","latitude":40.4385,"longitude":49.8137436},
{"country":"az","city":"baladzha shakhnazarli","accentcity":"Baladzha Shakhnazarli","region":17.0,"population":"","latitude":41.2808342,"longitude":48.90361},
{"country":"az","city":"bala-gasanli","accentcity":"Bala-Gasanli","region":43.0,"population":"","latitude":39.42829,"longitude":46.52838},
{"country":"az","city":"bala-gasanly","accentcity":"Bala-Gasanly","region":43.0,"population":"","latitude":39.42829,"longitude":46.52838},
{"country":"az","city":"bala gashimkhanly","accentcity":"Bala Gashimkhanly","region":46.0,"population":"","latitude":39.80318,"longitude":48.7843475},
{"country":"az","city":"bala geyushlyu","accentcity":"Bala G�yushlyu","region":11.0,"population":"","latitude":40.3333321,"longitude":47.25},
{"country":"az","city":"bala goyuslu","accentcity":"Bala Goyuslu","region":11.0,"population":"","latitude":40.3333321,"longitude":47.25},
{"country":"az","city":"bala hasanli","accentcity":"Bala Hasanli","region":43.0,"population":"","latitude":39.42829,"longitude":46.52838},
{"country":"az","city":"bala hasimxanli","accentcity":"Bala Hasimxanli","region":46.0,"population":"","latitude":39.80318,"longitude":48.7843475},
{"country":"az","city":"bala kadzhar","accentcity":"Bala Kadzhar","region":11.0,"population":"","latitude":40.3075638,"longitude":47.15902},
{"country":"az","city":"bala kahrizli","accentcity":"Bala Kahrizli","region":2.0,"population":"","latitude":40.0,"longitude":47.1833344},
{"country":"az","city":"balakan","accentcity":"Balakan","region":10.0,"population":"","latitude":41.7258339,"longitude":46.4083328},
{"country":"az","city":"bala kangarli","accentcity":"Bala Kangarli","region":27.0,"population":"","latitude":40.45226,"longitude":48.2767334},
{"country":"az","city":"balakend","accentcity":"Balakend","region":19.0,"population":"","latitude":40.5,"longitude":45.75},
{"country":"az","city":"balakend","accentcity":"Balakend","region":45.0,"population":"","latitude":39.95,"longitude":48.45},
{"country":"az","city":"bala kengerli","accentcity":"Bala Kengerli","region":27.0,"population":"","latitude":40.45226,"longitude":48.2767334},
{"country":"az","city":"bala kengerli","accentcity":"Bala Kengerli","region":57.0,"population":"","latitude":40.38333,"longitude":46.95},
{"country":"az","city":"bala-kengerly","accentcity":"Bala-Kengerly","region":57.0,"population":"","latitude":40.38333,"longitude":46.95},
{"country":"az","city":"balakhani","accentcity":"Balakhani","region":9.0,"population":"","latitude":40.4634438,"longitude":49.9189339},
{"country":"az","city":"balakhany","accentcity":"Balakhany","region":9.0,"population":"","latitude":40.4634438,"longitude":49.9189339},
{"country":"az","city":"balakon","accentcity":"Balakon","region":10.0,"population":"","latitude":41.7258339,"longitude":46.4083328},
{"country":"az","city":"balakurd","accentcity":"Balak�rd","region":21.0,"population":"","latitude":40.588604,"longitude":46.83732},
{"country":"az","city":"bala-kurtlar","accentcity":"Bala-Kurtlar","region":11.0,"population":"","latitude":40.2327766,"longitude":47.1755562},
{"country":"az","city":"bala kusar","accentcity":"Bala Kusar","region":44.0,"population":"","latitude":41.45013,"longitude":48.49311},
{"country":"az","city":"bala-kusary","accentcity":"Bala-Kusary","region":44.0,"population":"","latitude":41.45013,"longitude":48.49311},
{"country":"az","city":"bala-kusary","accentcity":"Bala-Kusary","region":60.0,"population":"","latitude":41.59263,"longitude":48.6463737},
{"country":"az","city":"bala kyagrizli","accentcity":"Bala Kyagrizli","region":2.0,"population":"","latitude":40.0,"longitude":47.1833344},
{"country":"az","city":"balakyurd","accentcity":"Balakyurd","region":21.0,"population":"","latitude":40.588604,"longitude":46.83732},
{"country":"az","city":"bala-muradkhan","accentcity":"Bala-Muradkhan","region":27.0,"population":"","latitude":40.2333336,"longitude":48.15},
{"country":"az","city":"biny selo","accentcity":"Biny Selo","region":9.0,"population":"","latitude":40.4519272,"longitude":50.08564},
{"country":"az","city":"birges","accentcity":"Birges","region":62.0,"population":"","latitude":40.52874,"longitude":46.4699936},
{"country":"az","city":"birgez","accentcity":"Birgez","region":62.0,"population":"","latitude":40.5397148,"longitude":46.48257},
{"country":"az","city":"birinci agali","accentcity":"Birinci Agali","region":69.0,"population":"","latitude":39.185936,"longitude":46.7525368},
{"country":"az","city":"birinci alicanli","accentcity":"Birinci Alicanli","region":71.0,"population":"","latitude":40.3336678,"longitude":47.59129},
{"country":"az","city":"birinci alincanli","accentcity":"Birinci Alincanli","region":71.0,"population":"","latitude":40.3336678,"longitude":47.59129},
{"country":"az","city":"birinci arabcabirli","accentcity":"Birinci Arabcabirli","region":22.0,"population":"","latitude":40.6524239,"longitude":47.7284355},
{"country":"az","city":"birinci aral","accentcity":"Birinci Aral","region":4.0,"population":"","latitude":40.6042976,"longitude":47.58751},
{"country":"az","city":"birinci aratkand","accentcity":"Birinci Aratkand","region":6.0,"population":"","latitude":40.5187149,"longitude":48.38145},
{"country":"az","city":"birinci asiqli","accentcity":"Birinci Asiqli","region":12.0,"population":"","latitude":39.8191681,"longitude":47.6794434},
{"country":"az","city":"birinci bilacik","accentcity":"Birinci Bilacik","region":47.0,"population":"","latitude":41.3296547,"longitude":46.9367027},
{"country":"az","city":"birinci cagan","accentcity":"Birinci Cagan","region":50.0,"population":"","latitude":40.72361,"longitude":48.5554466},
{"country":"az","city":"birinci imamverdili","accentcity":"Birinci Imamverdili","region":12.0,"population":"","latitude":39.77748,"longitude":47.87663},
{"country":"az","city":"birinci mahmudlu","accentcity":"Birinci Mahmudlu","region":18.0,"population":"","latitude":39.5533524,"longitude":47.57291},
{"country":"az","city":"birinci mayak","accentcity":"Birinci Mayak","region":36.0,"population":"","latitude":39.3671951,"longitude":49.34219},
{"country":"az","city":"birinci meyniman","accentcity":"Birinci Meyniman","region":23.0,"population":"","latitude":40.0348854,"longitude":48.7609634},
{"country":"az","city":"birinci milli","accentcity":"Birinci Milli","region":26.0,"population":"","latitude":40.11334,"longitude":46.08273},
{"country":"az","city":"birinci nomrali mayak","accentcity":"Birinci N�mr�li Mayak","region":36.0,"population":"","latitude":39.3671951,"longitude":49.34219},
{"country":"az","city":"birinci nugadi","accentcity":"Birinci Nugadi","region":42.0,"population":"","latitude":41.333786,"longitude":48.5442657},
{"country":"az","city":"birinci pasali","accentcity":"Birinci Pasali","region":23.0,"population":"","latitude":40.22244,"longitude":48.9016342},
{"country":"az","city":"birinci qaradamirci","accentcity":"Birinci Qaradamirci","region":11.0,"population":"","latitude":40.3719444,"longitude":47.13111},
{"country":"az","city":"birinci qarali","accentcity":"Birinci Qarali","region":36.0,"population":"","latitude":39.4494553,"longitude":49.0213356},
{"country":"az","city":"birinci sahsevan","accentcity":"Birinci Sahsevan","region":12.0,"population":"","latitude":39.6372223,"longitude":47.7527771},
{"country":"az","city":"birinci sixli","accentcity":"Birinci Sixli","region":40.0,"population":"","latitude":41.288,"longitude":45.14298},
{"country":"az","city":"birinci sordahna","accentcity":"Birinci Sordahna","region":4.0,"population":"","latitude":40.617157,"longitude":47.5304947},
{"country":"az","city":"birinci tigiq","accentcity":"Birinci Tigiq","region":28.0,"population":"","latitude":39.7068253,"longitude":46.5027237},
{"country":"az","city":"birinci udullu","accentcity":"Birinci Udullu","region":23.0,"population":"","latitude":40.26213,"longitude":48.8679237},
{"country":"az","city":"birinci yeniyol","accentcity":"Birinci Yeniyol","region":25.0,"population":"","latitude":40.75,"longitude":48.2666664},
{"country":"az","city":"birinci yuzbasli","accentcity":"Birinci Yuzbasli","region":3.0,"population":"","latitude":40.1403122,"longitude":47.09101},
{"country":"az","city":"birindzhi-alkhasova","accentcity":"Birindzhi-Alkhasova","region":22.0,"population":"","latitude":40.5779152,"longitude":47.9491119},
{"country":"az","city":"birindzhi-baledzhik","accentcity":"Birindzhi-Baledzhik","region":47.0,"population":"","latitude":41.3296547,"longitude":46.9367027},
{"country":"az","city":"birindzhi-bilyadzhik","accentcity":"Birindzhi-Bilyadzhik","region":47.0,"population":"","latitude":41.3296547,"longitude":46.9367027},
{"country":"az","city":"birindzhi-makhmudlu","accentcity":"Birindzhi-Makhmudlu","region":18.0,"population":"","latitude":39.5533524,"longitude":47.57291},
{"country":"az","city":"birindzhi-nyugedi","accentcity":"Birindzhi-Nyugedi","region":42.0,"population":"","latitude":41.333786,"longitude":48.5442657},
{"country":"az","city":"birindzhi-shikhly","accentcity":"Birindzhi-Shikhly","region":40.0,"population":"","latitude":41.288,"longitude":45.14298},
{"country":"az","city":"birindzhi-tala","accentcity":"Birindzhi-Tala","region":70.0,"population":"","latitude":41.61845,"longitude":46.6638756},
{"country":"az","city":"bir may","accentcity":"Bir May","region":24.0,"population":"","latitude":39.746666,"longitude":47.95889},
{"country":"az","city":"birziband","accentcity":"Birziband","region":8.0,"population":"","latitude":38.5356827,"longitude":48.7617569},
{"country":"az","city":"bist","accentcity":"Bist","region":35.0,"population":"","latitude":39.1494446,"longitude":45.8805542},
{"country":"az","city":"bitdili","accentcity":"Bitdili","region":51.0,"population":"","latitude":40.88808,"longitude":46.1695633},
{"country":"az","city":"bitlikyshlak","accentcity":"Bitlikyshlak","region":58.0,"population":"","latitude":40.7081833,"longitude":45.5348625},
{"country":"az","city":"bittili","accentcity":"Bittili","region":51.0,"population":"","latitude":40.88808,"longitude":46.1695633},
{"country":"az","city":"bizeir","accentcity":"Bizeir","region":31.0,"population":"","latitude":38.7262764,"longitude":48.396534},
{"country":"az","city":"bizeyir","accentcity":"Bizeyir","region":31.0,"population":"","latitude":38.7262764,"longitude":48.396534},
{"country":"az","city":"bizlan","accentcity":"Bizlan","region":25.0,"population":"","latitude":40.72076,"longitude":48.3919868},
{"country":"az","city":"biznan","accentcity":"Biznan","region":25.0,"population":"","latitude":40.72076,"longitude":48.3919868},
{"country":"az","city":"blut'an","accentcity":"Blut'an","region":65.0,"population":"","latitude":39.5375481,"longitude":47.0818138},
{"country":"az","city":"blykh","accentcity":"Blykh","region":38.0,"population":"","latitude":40.822197,"longitude":47.84596},
{"country":"az","city":"bobla","accentcity":"Bobla","region":31.0,"population":"","latitude":38.6852646,"longitude":48.67023},
{"country":"az","city":"bobogil","accentcity":"Bobogil","region":31.0,"population":"","latitude":38.8,"longitude":48.5166664},
{"country":"az","city":"bodara","accentcity":"Bodara","region":64.0,"population":"","latitude":39.9216652,"longitude":46.6619453},
{"country":"az","city":"bodzherevan","accentcity":"Bodzherevan","region":24.0,"population":"","latitude":39.90702,"longitude":48.1781769},
{"country":"az","city":"boiady","accentcity":"Boiady","region":29.0,"population":"","latitude":38.8904152,"longitude":48.7658348},
{"country":"az","city":"boiady","accentcity":"Boiady","region":32.0,"population":"","latitude":38.8908348,"longitude":48.7644424},
{"country":"az","city":"boladi","accentcity":"Boladi","region":29.0,"population":"","latitude":38.8904152,"longitude":48.7658348},
{"country":"az","city":"bolady","accentcity":"Bolady","region":29.0,"population":"","latitude":38.8904152,"longitude":48.7658348},
{"country":"az","city":"bol'bay","accentcity":"Bol'bay","region":8.0,"population":"","latitude":38.5680275,"longitude":48.6301422},
{"country":"az","city":"bolcali","accentcity":"Bolcali","region":62.0,"population":"","latitude":40.688446,"longitude":46.2717247},
{"country":"az","city":"bollydara","accentcity":"Bollydara","region":47.0,"population":"","latitude":40.831234,"longitude":47.4263763},
{"country":"az","city":"bol'shoy badzhiravan","accentcity":"Bol'shoy Badzhiravan","region":15.0,"population":"","latitude":39.1022224,"longitude":48.5375},
{"country":"az","city":"bol'shoy khanuklar","accentcity":"Bol'shoy Khanuklar","region":40.0,"population":"","latitude":41.0736122,"longitude":45.3169441},
{"country":"az","city":"bol'shoy khudat","accentcity":"Bol'shoy Khudat","region":60.0,"population":"","latitude":41.6212959,"longitude":48.65406},
{"country":"az","city":"bol'shoy kovlyar","accentcity":"Bol'shoy Kovlyar","region":46.0,"population":"","latitude":40.1123238,"longitude":48.5558},
{"country":"az","city":"bol'shoy oriat","accentcity":"Bol'shoy Oriat","region":36.0,"population":"","latitude":39.3959923,"longitude":49.2393951},
{"country":"az","city":"ermani bazar","accentcity":"Ermani Bazar","region":4.0,"population":"","latitude":40.7058334,"longitude":47.2844429},
{"country":"az","city":"ermeki","accentcity":"Ermeki","region":42.0,"population":"","latitude":41.27798,"longitude":48.5056763},
{"country":"az","city":"ermenet","accentcity":"Ermenet","region":37.0,"population":"","latitude":41.06405,"longitude":47.57036},
{"country":"az","city":"ermenet-kishlakh","accentcity":"Ermenet-Kishlakh","region":37.0,"population":"","latitude":41.0208321,"longitude":47.4841652},
{"country":"az","city":"ermenibazar","accentcity":"Ermenibazar","region":4.0,"population":"","latitude":40.7058334,"longitude":47.2844429},
{"country":"az","city":"ermeni-karadagly","accentcity":"Ermeni-Karadagly","region":21.0,"population":"","latitude":40.6535721,"longitude":46.5501556},
{"country":"az","city":"ermeni neymetabad","accentcity":"Ermeni Neymetabad","region":4.0,"population":"","latitude":40.6837273,"longitude":47.3016853},
{"country":"az","city":"ermyaki","accentcity":"Ermyaki","region":42.0,"population":"","latitude":41.27798,"longitude":48.5056763},
{"country":"az","city":"ertech","accentcity":"Ertech","region":21.0,"population":"","latitude":40.46473,"longitude":46.4726868},
{"country":"az","city":"erzikyush","accentcity":"Erzikyush","region":53.0,"population":"","latitude":40.94486,"longitude":48.9121},
{"country":"az","city":"eshakchi","accentcity":"Eshakchi","region":15.0,"population":"","latitude":39.1666679,"longitude":48.2833328},
{"country":"az","city":"eshlya","accentcity":"Eshlya","region":29.0,"population":"","latitude":38.7090874,"longitude":48.7355156},
{"country":"az","city":"esla","accentcity":"Esla","region":8.0,"population":"","latitude":38.7107773,"longitude":48.7314034},
{"country":"az","city":"etcheler","accentcity":"Etcheler","region":46.0,"population":"","latitude":40.04344,"longitude":48.675724},
{"country":"az","city":"etchelyar","accentcity":"Etchelyar","region":15.0,"population":"","latitude":39.05722,"longitude":48.7130547},
{"country":"az","city":"etchelyar","accentcity":"Etchelyar","region":46.0,"population":"","latitude":40.04344,"longitude":48.675724},
{"country":"az","city":"et'yemezli","accentcity":"Et'yemezli","region":3.0,"population":"","latitude":40.024807,"longitude":46.9431572},
{"country":"az","city":"euwbet","accentcity":"Euwbet","region":9.0,"population":"","latitude":40.3069458,"longitude":49.82083},
{"country":"az","city":"evadzhuk","accentcity":"Evadzhuk","region":44.0,"population":"","latitude":41.470295,"longitude":48.3918762},
{"country":"az","city":"evadzhukoba","accentcity":"Evadzhukoba","region":60.0,"population":"","latitude":41.74078,"longitude":48.6200447},
{"country":"az","city":"evazli","accentcity":"Evazli","region":3.0,"population":"","latitude":40.1345024,"longitude":47.1432533},
{"country":"az","city":"evedzhyuk","accentcity":"Evedzhyuk","region":44.0,"population":"","latitude":41.470295,"longitude":48.3918762},
{"country":"az","city":"evedzhyuk-kyshlakh","accentcity":"Evedzhyuk-Kyshlakh","region":60.0,"population":"","latitude":41.74078,"longitude":48.6200447},
{"country":"az","city":"evoglu","accentcity":"Evoglu","region":3.0,"population":"","latitude":40.01755,"longitude":47.06535},
{"country":"az","city":"evoglu","accentcity":"Evoglu","region":57.0,"population":"","latitude":40.3008347,"longitude":47.05639},
{"country":"az","city":"evogly","accentcity":"Evogly","region":3.0,"population":"","latitude":40.01755,"longitude":47.06535},
{"country":"az","city":"eygenfel'd","accentcity":"Eygenfel'd","region":51.0,"population":"","latitude":40.8460159,"longitude":45.8893166},
{"country":"az","city":"eyin","accentcity":"Eyin","region":43.0,"population":"","latitude":39.34853,"longitude":46.4895},
{"country":"az","city":"eymur","accentcity":"Eymur","region":4.0,"population":"","latitude":40.5456238,"longitude":47.24742},
{"country":"az","city":"eynalli","accentcity":"Eynalli","region":5.0,"population":"","latitude":41.06889,"longitude":45.49962},
{"country":"az","city":"eynally","accentcity":"Eynally","region":5.0,"population":"","latitude":41.06889,"longitude":45.49962},
{"country":"az","city":"eynibulag","accentcity":"Eynibulag","region":53.0,"population":"","latitude":41.1063271,"longitude":49.0370445},
{"country":"az","city":"eyni-bulagi","accentcity":"Eyni-Bulagi","region":53.0,"population":"","latitude":41.1063271,"longitude":49.0370445},
{"country":"az","city":"eynibulak","accentcity":"Eynibulak","region":53.0,"population":"","latitude":41.1063271,"longitude":49.0370445},
{"country":"az","city":"eynibulaq","accentcity":"Eynibulaq","region":53.0,"population":"","latitude":41.1063271,"longitude":49.0370445},
{"country":"az","city":"eyridzha","accentcity":"Eyridzha","region":11.0,"population":"","latitude":40.4230576,"longitude":47.2462578},
{"country":"az","city":"eyrivank","accentcity":"Eyrivank","region":19.0,"population":"","latitude":40.55,"longitude":45.61667},
{"country":"az","city":"eyubbeyli","accentcity":"Eyubbeyli","region":25.0,"population":"","latitude":40.62635,"longitude":48.23157},
{"country":"az","city":"eyvazalilar","accentcity":"Eyvazalilar","region":12.0,"population":"","latitude":39.8705368,"longitude":47.63698},
{"country":"az","city":"eyvazallar","accentcity":"Eyvazallar","region":12.0,"population":"","latitude":39.8705368,"longitude":47.63698},
{"country":"az","city":"eyvazalylar","accentcity":"Eyvazalylar","region":12.0,"population":"","latitude":39.8705368,"longitude":47.63698},
{"country":"az","city":"eyvazli","accentcity":"Eyvazli","region":43.0,"population":"","latitude":39.4349251,"longitude":46.3975639},
{"country":"az","city":"eyvazlilar","accentcity":"Eyvazlilar","region":12.0,"population":"","latitude":39.8705368,"longitude":47.63698},
{"country":"az","city":"eyvazly","accentcity":"Eyvazly","region":3.0,"population":"","latitude":40.1345024,"longitude":47.1432533},
{"country":"az","city":"eyvazly","accentcity":"Eyvazly","region":43.0,"population":"","latitude":39.4349251,"longitude":46.3975639},
{"country":"az","city":"ezgilli","accentcity":"Ezgilli","region":70.0,"population":"","latitude":41.5694427,"longitude":46.8583336},
{"country":"az","city":"ezgilly","accentcity":"Ezgilly","region":62.0,"population":"","latitude":40.4103622,"longitude":46.2875},
{"country":"az","city":"ezgilly","accentcity":"Ezgilly","region":70.0,"population":"","latitude":41.5694427,"longitude":46.8583336},
{"country":"az","city":"ezki-igrik","accentcity":"Ezki-Igrik","region":42.0,"population":"","latitude":41.3207054,"longitude":48.5088463},
{"country":"az","city":"fadili","accentcity":"Fadili","region":62.0,"population":"","latitude":40.6515961,"longitude":46.20663},
{"country":"az","city":"fadily","accentcity":"Fadily","region":62.0,"population":"","latitude":40.6515961,"longitude":46.20663},
{"country":"az","city":"fadyly","accentcity":"Fadyly","region":62.0,"population":"","latitude":40.6515961,"longitude":46.20663},
{"country":"az","city":"fakhlul","accentcity":"Fakhlul","region":61.0,"population":"","latitude":39.8166656,"longitude":46.7333336},
{"country":"az","city":"fakhraly","accentcity":"Fakhraly","region":21.0,"population":"","latitude":40.74778,"longitude":46.5580559},
{"country":"az","city":"fakhraly","accentcity":"Fakhraly","region":40.0,"population":"","latitude":41.10504,"longitude":45.1439056},
{"country":"az","city":"faldar","accentcity":"Faldar","region":70.0,"population":"","latitude":41.4666672,"longitude":46.5166664},
{"country":"az","city":"faldarli","accentcity":"Faldarli","region":70.0,"population":"","latitude":41.4666672,"longitude":46.5166664},
{"country":"az","city":"faldarly","accentcity":"Faldarly","region":70.0,"population":"","latitude":41.4666672,"longitude":46.5166664},
{"country":"az","city":"falmay-mahomedly","accentcity":"Falmay-Mahomedly","region":1.0,"population":"","latitude":40.50528,"longitude":49.90167},
{"country":"az","city":"faracan","accentcity":"Faracan","region":28.0,"population":"","latitude":39.5397644,"longitude":46.68194},
{"country":"az","city":"faradzhan","accentcity":"Faradzhan","region":28.0,"population":"","latitude":39.5397644,"longitude":46.68194},
{"country":"az","city":"farahli","accentcity":"Farahli","region":40.0,"population":"","latitude":41.10504,"longitude":45.1439056},
{"country":"az","city":"faraj","accentcity":"Faraj","region":28.0,"population":"","latitude":39.84019,"longitude":46.5157433},
{"country":"az","city":"farakhli","accentcity":"Farakhli","region":40.0,"population":"","latitude":41.10504,"longitude":45.1439056},
{"country":"az","city":"gilakeran","accentcity":"Gilakeran","region":8.0,"population":"","latitude":38.4813881,"longitude":48.87},
{"country":"az","city":"gilakh","accentcity":"Gilakh","region":44.0,"population":"","latitude":41.4766045,"longitude":48.17357},
{"country":"az","city":"gilancay","accentcity":"Gilan�ay","region":35.0,"population":"","latitude":39.0071831,"longitude":45.81903},
{"country":"az","city":"gilanchay","accentcity":"Gilanchay","region":35.0,"population":"","latitude":39.0071831,"longitude":45.81903},
{"country":"az","city":"gilatakh","accentcity":"Gilatakh","region":69.0,"population":"","latitude":39.1536751,"longitude":46.6137428},
{"country":"az","city":"gilazi","accentcity":"Gilazi","region":53.0,"population":3277.0,"latitude":40.9038963,"longitude":49.33552},
{"country":"az","city":"gilazi","accentcity":"Gilazi","region":63.0,"population":3277.0,"latitude":40.8709755,"longitude":49.3423347},
{"country":"az","city":"gilekeran","accentcity":"Gilekeran","region":8.0,"population":"","latitude":38.4813881,"longitude":48.87},
{"country":"az","city":"gil'","accentcity":"Gil'","region":44.0,"population":"","latitude":41.4693,"longitude":48.34259},
{"country":"az","city":"gilgilcay","accentcity":"Gilgil�ay","region":53.0,"population":"","latitude":41.1391373,"longitude":49.0909424},
{"country":"az","city":"gil'gil'chay","accentcity":"Gil'gil'chay","region":53.0,"population":"","latitude":41.1391373,"longitude":49.0909424},
{"country":"az","city":"gilidzhan","accentcity":"Gilidzhan","region":43.0,"population":"","latitude":39.2069054,"longitude":46.7116661},
{"country":"az","city":"gil'-kish","accentcity":"Gil'-Kish","region":44.0,"population":"","latitude":41.6340065,"longitude":48.5439453},
{"country":"az","city":"gil'oba","accentcity":"Gil'oba","region":44.0,"population":"","latitude":41.6340065,"longitude":48.5439453},
{"country":"az","city":"gilvar","accentcity":"Gilvar","region":17.0,"population":"","latitude":41.2219849,"longitude":48.7341042},
{"country":"az","city":"gilyanov","accentcity":"Gilyanov","region":42.0,"population":"","latitude":41.24736,"longitude":48.7358475},
{"country":"az","city":"gimil'","accentcity":"Gimil'","region":42.0,"population":"","latitude":41.2930374,"longitude":48.3392029},
{"country":"az","city":"gindarch","accentcity":"Gindarch","region":2.0,"population":"","latitude":40.0687,"longitude":47.20784},
{"country":"az","city":"gindarkh","accentcity":"Gindarkh","region":2.0,"population":"","latitude":40.0687,"longitude":47.20784},
{"country":"az","city":"gioulatagh","accentcity":"Gioulatagh","region":57.0,"population":"","latitude":40.1518021,"longitude":46.7690353},
{"country":"az","city":"gioulistan","accentcity":"Gioulistan","region":21.0,"population":"","latitude":40.356472,"longitude":46.58373},
{"country":"az","city":"gioune-kaler","accentcity":"Gioune-Kaler","region":65.0,"population":"","latitude":39.74604,"longitude":47.0346336},
{"country":"az","city":"gioune-tchartar","accentcity":"Gioune-Tchartar","region":65.0,"population":"","latitude":39.7564774,"longitude":47.0175858},
{"country":"az","city":"giourzalar","accentcity":"Giourzalar","region":21.0,"population":"","latitude":40.49778,"longitude":46.5508347},
{"country":"az","city":"giravud","accentcity":"Giravud","region":31.0,"population":"","latitude":38.83639,"longitude":48.4637451},
{"country":"az","city":"girazud","accentcity":"Girazud","region":31.0,"population":"","latitude":38.83639,"longitude":48.4637451},
{"country":"az","city":"girdadul","accentcity":"Girdadul","region":38.0,"population":"","latitude":40.7469444,"longitude":47.748333},
{"country":"az","city":"girda","accentcity":"Girda","region":6.0,"population":"","latitude":40.6362228,"longitude":48.2979622},
{"country":"az","city":"girdani","accentcity":"Girdani","region":29.0,"population":"","latitude":38.7972221,"longitude":48.7861137},
{"country":"az","city":"girdany","accentcity":"Girdany","region":29.0,"population":"","latitude":38.7972221,"longitude":48.7861137},
{"country":"az","city":"girdaz","accentcity":"Girdaz","region":42.0,"population":"","latitude":41.17905,"longitude":48.50705},
{"country":"az","city":"girdedui","accentcity":"Girdedui","region":38.0,"population":"","latitude":40.7469444,"longitude":47.748333},
{"country":"az","city":"girdedul","accentcity":"Girdedul","region":38.0,"population":"","latitude":40.7469444,"longitude":47.748333},
{"country":"az","city":"girde","accentcity":"Girde","region":6.0,"population":"","latitude":40.6362228,"longitude":48.2979622},
{"country":"az","city":"girey","accentcity":"Girey","region":42.0,"population":"","latitude":41.3333321,"longitude":48.3166656},
{"country":"az","city":"girik","accentcity":"Girik","region":44.0,"population":"","latitude":41.53444,"longitude":48.2785835},
{"country":"az","city":"giriz","accentcity":"Giriz","region":42.0,"population":"","latitude":41.21377,"longitude":48.24259},
{"country":"az","city":"girk","accentcity":"Girk","region":25.0,"population":"","latitude":40.6799049,"longitude":48.1090927},
{"country":"az","city":"girzan","accentcity":"Girzan","region":58.0,"population":"","latitude":41.06602,"longitude":45.7688255},
{"country":"az","city":"gish","accentcity":"Gish","region":65.0,"population":"","latitude":39.7752762,"longitude":47.02028},
{"country":"az","city":"gishi","accentcity":"Gishi","region":65.0,"population":"","latitude":39.7752762,"longitude":47.02028},
{"country":"az","city":"gishlagh","accentcity":"Gishlagh","region":14.0,"population":"","latitude":39.4720726,"longitude":47.04273},
{"country":"az","city":"giyasly","accentcity":"Giyasly","region":43.0,"population":"","latitude":39.221,"longitude":46.67841},
{"country":"az","city":"gobaktala","accentcity":"Gobaktala","region":24.0,"population":"","latitude":39.810688,"longitude":48.00833},
{"country":"az","city":"gobektala","accentcity":"Gobektala","region":24.0,"population":"","latitude":39.810688,"longitude":48.00833},
{"country":"az","city":"gobustan","accentcity":"Gobustan","region":9.0,"population":"","latitude":40.08238,"longitude":49.41205},
{"country":"az","city":"gocakli","accentcity":"Gocakli","region":32.0,"population":"","latitude":39.1222229,"longitude":48.75611},
{"country":"az","city":"gochakli","accentcity":"Gochakli","region":32.0,"population":"","latitude":39.1222229,"longitude":48.75611},
{"country":"az","city":"gochaz","accentcity":"Gochaz","region":28.0,"population":"","latitude":39.6775742,"longitude":46.45669},
{"country":"az","city":"godaklar","accentcity":"Godaklar","region":12.0,"population":"","latitude":39.75962,"longitude":47.8477325},
{"country":"az","city":"godaklar","accentcity":"Godaklar","region":43.0,"population":"","latitude":39.3294754,"longitude":46.60201},
{"country":"az","city":"godakli","accentcity":"Godakli","region":60.0,"population":"","latitude":41.5227776,"longitude":48.7047234},
{"country":"az","city":"godakqobu","accentcity":"Godakqobu","region":71.0,"population":"","latitude":40.2432976,"longitude":47.5903053},
{"country":"az","city":"godaksar","accentcity":"Godaksar","region":57.0,"population":"","latitude":40.2666664,"longitude":46.7833328},
{"country":"az","city":"godman","accentcity":"Godman","region":32.0,"population":"","latitude":38.9775,"longitude":48.6259727},
{"country":"az","city":"godzhaly","accentcity":"Godzhaly","region":27.0,"population":"","latitude":40.0663567,"longitude":48.26099},
{"country":"az","city":"goga","accentcity":"Goga","region":18.0,"population":"","latitude":39.58884,"longitude":47.0335732},
{"country":"az","city":"golovino","accentcity":"Golovino","region":45.0,"population":"","latitude":39.85574,"longitude":48.40953},
{"country":"az","city":"golovinovka","accentcity":"Golovinovka","region":45.0,"population":"","latitude":39.85574,"longitude":48.40953},
{"country":"az","city":"golyeri","accentcity":"G�lyeri","region":66.0,"population":"","latitude":39.0100555,"longitude":48.388546},
{"country":"az","city":"gomur","accentcity":"G�m�r","region":17.0,"population":"","latitude":41.10098,"longitude":48.7472038},
{"country":"az","city":"gomur","accentcity":"G�m�r","region":35.0,"population":"","latitude":39.46148,"longitude":45.75165},
{"country":"az","city":"gomuscu","accentcity":"Gomuscu","region":46.0,"population":"","latitude":40.05111,"longitude":48.3936119},
{"country":"az","city":"gomushchu","accentcity":"Gomushchu","region":45.0,"population":"","latitude":39.8746033,"longitude":48.2868156},
{"country":"az","city":"husun","accentcity":"Husun","region":4.0,"population":"","latitude":40.67933,"longitude":47.5570259},
{"country":"az","city":"iachma","accentcity":"Iachma","region":63.0,"population":"","latitude":40.7071953,"longitude":49.47582},
{"country":"az","city":"iardymly","accentcity":"Iardymly","region":66.0,"population":"","latitude":38.9205551,"longitude":48.23722},
{"country":"az","city":"ibadulla","accentcity":"Ibadulla","region":35.0,"population":"","latitude":39.48445,"longitude":44.95739},
{"country":"az","city":"ibakhly","accentcity":"Ibakhly","region":39.0,"population":"","latitude":41.35889,"longitude":46.8591652},
{"country":"az","city":"ibragimbeyli","accentcity":"Ibragimbeyli","region":11.0,"population":"","latitude":40.4281769,"longitude":47.23191},
{"country":"az","city":"ibragim-gadzhaly","accentcity":"Ibragim-Gadzhaly","region":58.0,"population":"","latitude":40.8955765,"longitude":45.746},
{"country":"az","city":"ibragim gadzhyly","accentcity":"Ibragim Gadzhyly","region":58.0,"population":"","latitude":40.8955765,"longitude":45.746},
{"country":"az","city":"ibragim-gaput","accentcity":"Ibragim-Gaput","region":42.0,"population":"","latitude":41.35139,"longitude":48.7958336},
{"country":"az","city":"ibragimgapyt","accentcity":"Ibragimgapyt","region":42.0,"population":"","latitude":41.35139,"longitude":48.7958336},
{"country":"az","city":"ibragimkend","accentcity":"Ibragimkend","region":47.0,"population":"","latitude":41.0211,"longitude":47.2272},
{"country":"az","city":"ibrahimhacili","accentcity":"Ibrahimhacili","region":58.0,"population":"","latitude":40.88333,"longitude":45.75},
{"country":"az","city":"ibrahimhapit","accentcity":"Ibrahimhapit","region":42.0,"population":"","latitude":41.35139,"longitude":48.7958336},
{"country":"az","city":"ibrahimkand","accentcity":"Ibrahimkand","region":47.0,"population":"","latitude":41.0211,"longitude":47.2272},
{"country":"az","city":"ibrogim-gadzhyly","accentcity":"Ibrogim-Gadzhyly","region":58.0,"population":"","latitude":40.88333,"longitude":45.75},
{"country":"az","city":"icara","accentcity":"Icara","region":15.0,"population":"","latitude":39.2128639,"longitude":48.36901},
{"country":"az","city":"icari","accentcity":"Icari","region":69.0,"population":"","latitude":39.0883446,"longitude":46.6511955},
{"country":"az","city":"icari muslan","accentcity":"Icari Muslan","region":69.0,"population":"","latitude":39.0733337,"longitude":46.70028},
{"country":"az","city":"ichari mushlan","accentcity":"Ichari Mushlan","region":69.0,"population":"","latitude":39.0733337,"longitude":46.70028},
{"country":"az","city":"idrisi","accentcity":"Idrisi","region":42.0,"population":"","latitude":41.2728767,"longitude":48.7615471},
{"country":"az","city":"idrisoba","accentcity":"Idrisoba","region":60.0,"population":"","latitude":41.62832,"longitude":48.6216621},
{"country":"az","city":"idrisqislaq","accentcity":"Idrisqislaq","region":42.0,"population":"","latitude":41.2728767,"longitude":48.7615471},
{"country":"az","city":"idzhara","accentcity":"Idzhara","region":15.0,"population":"","latitude":39.2128639,"longitude":48.36901},
{"country":"az","city":"ieghtsahogh","accentcity":"Ieghtsahogh","region":55.0,"population":"","latitude":39.6764145,"longitude":46.57298},
{"country":"az","city":"iemish chan","accentcity":"Iemish Chan","region":65.0,"population":"","latitude":39.8320122,"longitude":47.00841},
{"country":"az","city":"igrik","accentcity":"Igrik","region":42.0,"population":"","latitude":41.3634377,"longitude":48.6015},
{"country":"az","city":"igrykh","accentcity":"Igrykh","region":42.0,"population":"","latitude":41.3634377,"longitude":48.6015},
{"country":"az","city":"ikinci agali","accentcity":"Ikinci Agali","region":69.0,"population":"","latitude":39.1784744,"longitude":46.7620239},
{"country":"az","city":"ikinci alicanli","accentcity":"Ikinci Alicanli","region":71.0,"population":"","latitude":40.32973,"longitude":47.62935},
{"country":"az","city":"ikinci alxasava","accentcity":"Ikinci Alxasava","region":22.0,"population":"","latitude":40.5634766,"longitude":47.9757729},
{"country":"az","city":"ikinci arabcabirli","accentcity":"Ikinci Arabcabirli","region":22.0,"population":"","latitude":40.6486168,"longitude":47.6970177},
{"country":"az","city":"ikinci aral","accentcity":"Ikinci Aral","region":4.0,"population":"","latitude":40.6,"longitude":47.5833321},
{"country":"az","city":"ikinci aratkand","accentcity":"Ikinci Aratkand","region":6.0,"population":"","latitude":40.49772,"longitude":48.4083672},
{"country":"az","city":"ikinci asiqli","accentcity":"Ikinci Asiqli","region":12.0,"population":"","latitude":39.8485565,"longitude":47.6564445},
{"country":"az","city":"ikinci bilacik","accentcity":"Ikinci Bilacik","region":47.0,"population":"","latitude":41.31631,"longitude":46.95046},
{"country":"az","city":"ikinci cagan","accentcity":"Ikinci Cagan","region":50.0,"population":"","latitude":40.7313881,"longitude":48.5483322},
{"country":"az","city":"ikinci imamverdili","accentcity":"Ikinci Imamverdili","region":12.0,"population":"","latitude":39.7621841,"longitude":47.89158},
{"country":"az","city":"ikinci mayak","accentcity":"Ikinci Mayak","region":36.0,"population":"","latitude":39.36198,"longitude":49.3393631},
{"country":"az","city":"ikinci meyniman","accentcity":"Ikinci Meyniman","region":23.0,"population":"","latitude":40.04551,"longitude":48.73516},
{"country":"az","city":"ikinci nomrali mayak","accentcity":"Ikinci Nomrali Mayak","region":36.0,"population":"","latitude":39.36198,"longitude":49.3393631},
{"country":"az","city":"ikinci nugadi","accentcity":"Ikinci Nugadi","region":42.0,"population":"","latitude":41.3180161,"longitude":48.5885963},
{"country":"az","city":"ikinci pasali","accentcity":"Ikinci Pasali","region":23.0,"population":"","latitude":40.2548561,"longitude":48.8812},
{"country":"az","city":"ikinci qala","accentcity":"Ikinci Qala","region":9.0,"population":"","latitude":40.4772224,"longitude":50.09778},
{"country":"az","city":"ikinci qaradamirci","accentcity":"Ikinci Qaradamirci","region":11.0,"population":"","latitude":40.33598,"longitude":47.16468},
{"country":"az","city":"ikinci qarali","accentcity":"Ikinci Qarali","region":36.0,"population":"","latitude":39.4544449,"longitude":49.0325},
{"country":"az","city":"ikinci sahsevan","accentcity":"Ikinci Sahsevan","region":12.0,"population":"","latitude":39.63061,"longitude":47.706356},
{"country":"az","city":"ikinci sixli","accentcity":"Ikinci Sixli","region":40.0,"population":"","latitude":41.3119431,"longitude":45.101944},
{"country":"az","city":"ikinci sordahna","accentcity":"Ikinci Sordahna","region":4.0,"population":"","latitude":40.60635,"longitude":47.50592},
{"country":"az","city":"ikinci tigiq","accentcity":"Ikinci Tigiq","region":28.0,"population":"","latitude":39.6894455,"longitude":46.52028},
{"country":"az","city":"ikinci udullu","accentcity":"Ikinci Udullu","region":23.0,"population":"","latitude":40.30809,"longitude":48.8398857},
{"country":"az","city":"ikinci yalama","accentcity":"Ikinci Yalama","region":60.0,"population":"","latitude":41.8333321,"longitude":48.6083336},
{"country":"az","city":"ikinci yasma","accentcity":"Ikinci Yasma","region":63.0,"population":"","latitude":40.7180557,"longitude":49.5119438},
{"country":"az","city":"ikinci yeddioymaq","accentcity":"Ikinci Yeddioymaq","region":32.0,"population":"","latitude":38.9908333,"longitude":48.7575},
{"country":"az","city":"ikinci yeniyol","accentcity":"Ikinci Yeniyol","region":25.0,"population":"","latitude":40.7579842,"longitude":48.2590027},
{"country":"az","city":"ikinci yuzbasli","accentcity":"Ikinci Yuzbasli","region":3.0,"population":"","latitude":40.1520844,"longitude":47.1011162},
{"country":"az","city":"ikindzhi-alkhasova","accentcity":"Ikindzhi-Alkhasova","region":22.0,"population":"","latitude":40.5634766,"longitude":47.9757729},
{"country":"az","city":"ikindzhi-shikhly","accentcity":"Ikindzhi-Shikhly","region":40.0,"population":"","latitude":41.3119431,"longitude":45.101944},
{"country":"az","city":"ikindzhi-tala","accentcity":"Ikindzhi-Tala","region":70.0,"population":"","latitude":41.602356,"longitude":46.6527252},
{"country":"az","city":"ikindzhi-yalama","accentcity":"Ikindzhi-Yalama","region":60.0,"population":"","latitude":41.8333321,"longitude":48.6083336},
{"country":"az","city":"ilanli","accentcity":"Ilanli","region":41.0,"population":"","latitude":40.4725,"longitude":49.02222},
{"country":"az","city":"ilanlu","accentcity":"Ilanlu","region":41.0,"population":"","latitude":40.4725,"longitude":49.02222},
{"country":"az","city":"ilanly","accentcity":"Ilanly","region":41.0,"population":"","latitude":40.4725,"longitude":49.02222},
{"country":"az","city":"il'ichevsk","accentcity":"Il'ichevsk","region":35.0,"population":"","latitude":39.5467148,"longitude":44.96152},
{"country":"az","city":"ilich","accentcity":"Ilich","region":35.0,"population":"","latitude":39.5467148,"longitude":44.96152},
{"country":"az","city":"karababa","accentcity":"Karababa","region":35.0,"population":"","latitude":39.4105148,"longitude":45.58924},
{"country":"az","city":"karababa","accentcity":"Karababa","region":69.0,"population":"","latitude":39.1792145,"longitude":46.5849838},
{"country":"az","city":"karabaglar","accentcity":"Karabaglar","region":22.0,"population":"","latitude":40.6315,"longitude":47.69507},
{"country":"az","city":"karabaglar","accentcity":"Karabaglar","region":35.0,"population":"","latitude":39.4268646,"longitude":45.19774},
{"country":"az","city":"karabaglar","accentcity":"Karabaglar","region":52.0,"population":"","latitude":40.7544441,"longitude":46.4585},
{"country":"az","city":"karabaglyar","accentcity":"Karabaglyar","region":35.0,"population":"","latitude":39.4268646,"longitude":45.19774},
{"country":"az","city":"karabagly","accentcity":"Karabagly","region":6.0,"population":"","latitude":40.5169449,"longitude":48.376667},
{"country":"az","city":"karabagly","accentcity":"Karabagly","region":17.0,"population":"","latitude":41.1435928,"longitude":48.9712},
{"country":"az","city":"karabagly","accentcity":"Karabagly","region":49.0,"population":"","latitude":39.7691727,"longitude":48.97535},
{"country":"az","city":"karabagly","accentcity":"Karabagly","region":52.0,"population":"","latitude":41.13639,"longitude":46.28361},
{"country":"az","city":"karabagly","accentcity":"Karabagly","region":60.0,"population":"","latitude":41.4823265,"longitude":48.87072},
{"country":"az","city":"karabaglylar","accentcity":"Karabaglylar","region":52.0,"population":"","latitude":40.7544441,"longitude":46.4585},
{"country":"az","city":"karabakkal","accentcity":"Karabakkal","region":22.0,"population":"","latitude":40.63374,"longitude":47.7925758},
{"country":"az","city":"karabaldyr","accentcity":"Karabaldyr","region":37.0,"population":"","latitude":40.98399,"longitude":47.4465942},
{"country":"az","city":"karabaldyr","accentcity":"Karabaldyr","region":39.0,"population":"","latitude":41.40547,"longitude":46.7162743},
{"country":"az","city":"karaballar","accentcity":"Karaballar","region":22.0,"population":"","latitude":40.6315,"longitude":47.69507},
{"country":"az","city":"karaberk","accentcity":"Karab�rk","region":59.0,"population":"","latitude":40.4764862,"longitude":47.65975},
{"country":"az","city":"karabeyli","accentcity":"Karabeyli","region":28.0,"population":"","latitude":39.8814125,"longitude":46.3828926},
{"country":"az","city":"karabudshach","accentcity":"Karabudshach","region":27.0,"population":"","latitude":40.4260445,"longitude":48.0586128},
{"country":"az","city":"karabudzhag","accentcity":"Karabudzhag","region":27.0,"population":"","latitude":40.4260445,"longitude":48.0586128},
{"country":"az","city":"karabudzhag","accentcity":"Karabudzhag","region":36.0,"population":"","latitude":39.46594,"longitude":49.02097},
{"country":"az","city":"karabudzhakh","accentcity":"Karabudzhakh","region":27.0,"population":"","latitude":40.4260445,"longitude":48.0586128},
{"country":"az","city":"karabudzhakh","accentcity":"Karabudzhakh","region":36.0,"population":"","latitude":39.46594,"longitude":49.02097},
{"country":"az","city":"karabudzhak","accentcity":"Karabudzhak","region":27.0,"population":"","latitude":40.05482,"longitude":48.2964973},
{"country":"az","city":"karabujakh","accentcity":"Karabujakh","region":36.0,"population":"","latitude":39.46594,"longitude":49.02097},
{"country":"az","city":"karabulag","accentcity":"Karabulag","region":17.0,"population":"","latitude":41.10098,"longitude":48.7472038},
{"country":"az","city":"karabulag","accentcity":"Karabulag","region":37.0,"population":"","latitude":40.87346,"longitude":47.5735855},
{"country":"az","city":"karabulag","accentcity":"Karabulag","region":42.0,"population":"","latitude":41.1184578,"longitude":48.53548},
{"country":"az","city":"karabulakh","accentcity":"Karabulakh","region":64.0,"population":"","latitude":39.70736,"longitude":46.8658943},
{"country":"az","city":"karabulak","accentcity":"Karabulak","region":37.0,"population":"","latitude":40.87346,"longitude":47.5735855},
{"country":"az","city":"karabulak","accentcity":"Karabulak","region":42.0,"population":"","latitude":41.1184578,"longitude":48.53548},
{"country":"az","city":"karabulak","accentcity":"Karabulak","region":63.0,"population":"","latitude":40.8340034,"longitude":49.0930824},
{"country":"az","city":"karabulak","accentcity":"Karabulak","region":64.0,"population":"","latitude":39.70736,"longitude":46.8658943},
{"country":"az","city":"karaburdzh","accentcity":"Karaburdzh","region":35.0,"population":"","latitude":39.58135,"longitude":44.93951},
{"country":"az","city":"karachala","accentcity":"Karachala","region":49.0,"population":"","latitude":39.81318,"longitude":48.9523048},
{"country":"az","city":"karachalinskaya","accentcity":"Karachalinskaya","region":49.0,"population":"","latitude":39.81318,"longitude":48.9523048},
{"country":"az","city":"karachanly","accentcity":"Karachanly","region":26.0,"population":"","latitude":40.0684776,"longitude":46.1856537},
{"country":"az","city":"karachanly","accentcity":"Karachanly","region":28.0,"population":"","latitude":39.7411232,"longitude":46.3899},
{"country":"az","city":"karachaydzhek","accentcity":"Karachaydzhek","region":60.0,"population":"","latitude":41.3887177,"longitude":48.7733345},
{"country":"az","city":"karachay","accentcity":"Karachay","region":60.0,"population":"","latitude":41.444,"longitude":48.8358231},
{"country":"az","city":"karachayly","accentcity":"Karachayly","region":17.0,"population":"","latitude":41.36541,"longitude":48.919384},
{"country":"az","city":"karachekhur","accentcity":"Karachekhur","region":9.0,"population":"","latitude":40.3966675,"longitude":49.97361},
{"country":"az","city":"karachik","accentcity":"Karachik","region":35.0,"population":"","latitude":39.1666679,"longitude":45.35},
{"country":"az","city":"karachik zeid","accentcity":"Karachik Zeid","region":60.0,"population":"","latitude":41.3791733,"longitude":48.7521172},
{"country":"az","city":"karachiman","accentcity":"Karachiman","region":69.0,"population":"","latitude":39.1858253,"longitude":46.5025368},
{"country":"az","city":"karachinar","accentcity":"Karachinar","region":21.0,"population":"","latitude":40.4441681,"longitude":46.6341667},
{"country":"az","city":"karachug","accentcity":"Karachug","region":35.0,"population":"","latitude":39.1666679,"longitude":45.35},
{"country":"az","city":"karachukh","accentcity":"Karachukh","region":35.0,"population":"","latitude":39.1666679,"longitude":45.35},
{"country":"az","city":"karachukhur","accentcity":"Karachukhur","region":9.0,"population":"","latitude":40.3966675,"longitude":49.97361},
{"country":"az","city":"karachuk","accentcity":"Karachuk","region":35.0,"population":"","latitude":39.1666679,"longitude":45.35},
{"country":"az","city":"karachy","accentcity":"Karachy","region":60.0,"population":"","latitude":41.444,"longitude":48.8358231},
{"country":"az","city":"karadag","accentcity":"Karadag","region":3.0,"population":"","latitude":39.9833336,"longitude":46.9666672},
{"country":"az","city":"karadag","accentcity":"Karadag","region":9.0,"population":"","latitude":40.2644424,"longitude":49.6075},
{"country":"az","city":"karadag","accentcity":"Karadag","region":19.0,"population":"","latitude":40.6102562,"longitude":45.8020821},
{"country":"az","city":"karadaglidjenam","accentcity":"Karadaglidjenam","region":59.0,"population":"","latitude":40.48859,"longitude":47.57349},
{"country":"az","city":"karadaglu","accentcity":"Karadaglu","region":14.0,"population":"","latitude":39.51229,"longitude":47.0762939},
{"country":"az","city":"karadagly","accentcity":"Karadagly","region":3.0,"population":"","latitude":39.9833336,"longitude":46.9666672},
{"country":"az","city":"karadagly","accentcity":"Karadagly","region":4.0,"population":"","latitude":40.63224,"longitude":47.4513855},
{"country":"az","city":"karadagly","accentcity":"Karadagly","region":11.0,"population":"","latitude":40.2679939,"longitude":46.9645348},
{"country":"az","city":"karadagly","accentcity":"Karadagly","region":12.0,"population":"","latitude":39.6658058,"longitude":47.78646},
{"country":"az","city":"karadagly","accentcity":"Karadagly","region":14.0,"population":"","latitude":39.51229,"longitude":47.0762939},
{"country":"az","city":"karadagly","accentcity":"Karadagly","region":21.0,"population":"","latitude":40.6535721,"longitude":46.5501556},
{"country":"az","city":"karadagly","accentcity":"Karadagly","region":26.0,"population":"","latitude":40.2666664,"longitude":46.13333},
{"country":"az","city":"karadagly","accentcity":"Karadagly","region":47.0,"population":"","latitude":41.17555,"longitude":47.01136},
{"country":"az","city":"kelany","accentcity":"Kelany","region":53.0,"population":"","latitude":41.1791,"longitude":49.1222878},
{"country":"az","city":"kelany-turany","accentcity":"Kelany-Turany","region":23.0,"population":"","latitude":40.0770264,"longitude":48.70133},
{"country":"az","city":"kelazeyva","accentcity":"Kelazeyva","region":25.0,"population":"","latitude":40.7564125,"longitude":48.451664},
{"country":"az","city":"kelbadshar","accentcity":"Kelbadshar","region":26.0,"population":"","latitude":40.1066666,"longitude":46.0383339},
{"country":"az","city":"kel'badzhar","accentcity":"Kel'badzhar","region":26.0,"population":"","latitude":40.1066666,"longitude":46.0383339},
{"country":"az","city":"kel'baguseynli","accentcity":"Kel'baguseynli","region":15.0,"population":"","latitude":39.0852776,"longitude":48.6544456},
{"country":"az","city":"kelbasan","accentcity":"Kelbasan","region":51.0,"population":"","latitude":40.9,"longitude":45.8166656},
{"country":"az","city":"kel'bend","accentcity":"Kel'bend","region":25.0,"population":"","latitude":40.6650734,"longitude":48.1276474},
{"country":"az","city":"kelek","accentcity":"Kelek","region":21.0,"population":"","latitude":40.7296867,"longitude":46.68667},
{"country":"az","city":"kelenly","accentcity":"Kelenly","region":23.0,"population":"","latitude":40.2669449,"longitude":48.79972},
{"country":"az","city":"keleybugurt","accentcity":"Keleybugurt","region":50.0,"population":"","latitude":40.755188,"longitude":48.5667267},
{"country":"az","city":"kel'farach","accentcity":"Kel'farach","region":25.0,"population":"","latitude":40.7742,"longitude":48.3614655},
{"country":"az","city":"kelkhalfali","accentcity":"K�lkhalfali","region":5.0,"population":"","latitude":41.2052765,"longitude":45.425},
{"country":"az","city":"kel-khalfaly","accentcity":"Kel-Khalfaly","region":5.0,"population":"","latitude":41.2052765,"longitude":45.425},
{"country":"az","city":"kelly","accentcity":"Kelly","region":16.0,"population":"","latitude":40.4270248,"longitude":46.20026},
{"country":"az","city":"kelpy-kishlak","accentcity":"K�lpy-Kishlak","region":69.0,"population":"","latitude":39.06751,"longitude":46.52741},
{"country":"az","city":"keltakhnaly","accentcity":"Keltakhnaly","region":51.0,"population":"","latitude":40.86667,"longitude":46.1833344},
{"country":"az","city":"kel'va","accentcity":"Kel'va","region":6.0,"population":"","latitude":40.72675,"longitude":48.48111},
{"country":"az","city":"kel'vend","accentcity":"Kel'vend","region":25.0,"population":"","latitude":40.6650734,"longitude":48.1276474},
{"country":"az","city":"kemally","accentcity":"Kemally","region":45.0,"population":"","latitude":39.9209976,"longitude":48.27808},
{"country":"az","city":"kemanly","accentcity":"Kemanly","region":15.0,"population":"","latitude":39.0845833,"longitude":48.5508347},
{"country":"az","city":"kemerli","accentcity":"Kemerli","region":40.0,"population":"","latitude":41.20973,"longitude":45.0799},
{"country":"az","city":"kemervan","accentcity":"Kemervan","region":38.0,"population":"","latitude":41.05985,"longitude":47.79549},
{"country":"az","city":"kemrakuch","accentcity":"Kemrakuch","region":65.0,"population":"","latitude":39.5391655,"longitude":47.02222},
{"country":"az","city":"kenaramesha","accentcity":"Kenaramesha","region":29.0,"population":"","latitude":38.700325,"longitude":48.8642845},
{"country":"az","city":"kendberi-seidlyar","accentcity":"Kendberi-Seidlyar","region":60.0,"population":"","latitude":41.7062569,"longitude":48.7296524},
{"country":"az","city":"kendelyan","accentcity":"Kendelyan","region":47.0,"population":"","latitude":41.2653236,"longitude":47.0207977},
{"country":"az","city":"kendkhurd","accentcity":"Kendkhurd","region":65.0,"population":"","latitude":39.7797279,"longitude":46.96445},
{"country":"az","city":"kendoba","accentcity":"Kendoba","region":6.0,"population":"","latitude":40.40424,"longitude":48.44404},
{"country":"az","city":"kend shakhbuz","accentcity":"Kend Shakhbuz","region":35.0,"population":"","latitude":39.38035,"longitude":45.5781746},
{"country":"az","city":"kenga khachmas","accentcity":"K�nga Khachmas","region":60.0,"population":"","latitude":41.4782143,"longitude":48.791},
{"country":"az","city":"k'engerli","accentcity":"K'engerli","region":3.0,"population":"","latitude":40.031147,"longitude":46.9687271},
{"country":"az","city":"kengerli","accentcity":"Kengerli","region":57.0,"population":"","latitude":40.41748,"longitude":46.96036},
{"country":"az","city":"kengerlu","accentcity":"Kengerlu","region":2.0,"population":"","latitude":40.1977768,"longitude":47.3605576},
{"country":"az","city":"kengerly","accentcity":"Kengerly","region":57.0,"population":"","latitude":40.41748,"longitude":46.96036},
{"country":"az","city":"kengorli","accentcity":"Kengorli","region":3.0,"population":"","latitude":40.031147,"longitude":46.9687271},
{"country":"az","city":"kenyullyu","accentcity":"K�nyullyu","region":51.0,"population":"","latitude":40.78417,"longitude":46.24139},
{"country":"az","city":"kepenekchi","accentcity":"Kepenekchi","region":11.0,"population":"","latitude":40.3166656,"longitude":47.2333336},
{"country":"az","city":"kerar","accentcity":"Kerar","region":27.0,"population":"","latitude":40.2811966,"longitude":48.3662224},
{"country":"az","city":"kerarkh","accentcity":"Kerarkh","region":4.0,"population":"","latitude":40.6853561,"longitude":47.43981},
{"country":"az","city":"keravud","accentcity":"Keravud","region":31.0,"population":"","latitude":38.83639,"longitude":48.4637451},
{"country":"az","city":"kerbakhiar","accentcity":"Kerbakhiar","region":26.0,"population":"","latitude":40.1066666,"longitude":46.0383339},
{"country":"az","city":"kerche","accentcity":"Kerche","region":25.0,"population":"","latitude":40.8463364,"longitude":48.3820267},
{"country":"az","city":"kergelan","accentcity":"Kergelan","region":29.0,"population":"","latitude":38.74618,"longitude":48.7777252},
{"country":"az","city":"kergez","accentcity":"K�rg�z","region":9.0,"population":"","latitude":40.3030548,"longitude":49.62},
{"country":"az","city":"kergyady","accentcity":"Kergyady","region":66.0,"population":"","latitude":38.91611,"longitude":48.27833},
{"country":"az","city":"kerimbeyli","accentcity":"Kerimbeyli","region":11.0,"population":"","latitude":40.4506,"longitude":47.2502},
{"country":"az","city":"kerimbeyli","accentcity":"Kerimbeyli","region":18.0,"population":"","latitude":39.50852,"longitude":47.4167175},
{"country":"az","city":"kerimbeyli","accentcity":"Kerimbeyli","region":35.0,"population":"","latitude":39.5952148,"longitude":44.9115753},
{"country":"az","city":"kerimbeyli","accentcity":"Kerimbeyli","region":49.0,"population":"","latitude":39.7926369,"longitude":48.9462662},
{"country":"az","city":"kerimkuludiza","accentcity":"Kerimkuludiza","region":35.0,"population":"","latitude":39.01158,"longitude":45.74214},
{"country":"az","city":"kerimli","accentcity":"Kerimli","region":19.0,"population":"","latitude":40.5558319,"longitude":45.6316681},
{"country":"az","city":"kerkench","accentcity":"Kerkench","region":50.0,"population":"","latitude":40.5825348,"longitude":48.5602379},
{"country":"az","city":"ker","accentcity":"Ker","region":31.0,"population":"","latitude":38.63333,"longitude":48.5},
{"country":"az","city":"kermechatakh","accentcity":"Kermechatakh","region":35.0,"population":"","latitude":39.4921341,"longitude":45.4342957},
{"country":"az","city":"kerpyukend","accentcity":"K�rpyukend","region":11.0,"population":"","latitude":40.264492,"longitude":47.4902344},
{"country":"az","city":"kerpyusyndyran","accentcity":"K�rpyusyndyran","region":11.0,"population":"","latitude":40.3546753,"longitude":47.05937},
{"country":"az","city":"kerrar","accentcity":"Kerrar","region":27.0,"population":"","latitude":40.2811966,"longitude":48.3662224},
{"country":"az","city":"k'ert'","accentcity":"K'ert'","region":65.0,"population":"","latitude":39.7451744,"longitude":46.9913},
{"country":"az","city":"kert","accentcity":"Kert","region":65.0,"population":"","latitude":39.7451744,"longitude":46.9913},
{"country":"az","city":"keryadi","accentcity":"Keryadi","region":66.0,"population":"","latitude":38.91611,"longitude":48.27833},
{"country":"az","city":"kesalar","accentcity":"Kesalar","region":28.0,"population":"","latitude":39.6269455,"longitude":46.3933334},
{"country":"az","city":"kesalar","accentcity":"Kesalar","region":64.0,"population":"","latitude":39.80838,"longitude":46.67358},
{"country":"az","city":"kesaman","accentcity":"Kesaman","region":19.0,"population":"","latitude":40.604187,"longitude":45.6574059},
{"country":"az","city":"kilsabugov","accentcity":"Kilsabugov","region":10.0,"population":"","latitude":41.6833344,"longitude":46.3},
{"country":"az","city":"kilsali","accentcity":"Kilsali","region":19.0,"population":"","latitude":40.70184,"longitude":45.4636},
{"country":"az","city":"kilsali","accentcity":"Kilsali","region":26.0,"population":"","latitude":40.11748,"longitude":46.1914825},
{"country":"az","city":"kil'syabugov","accentcity":"Kil'syabugov","region":10.0,"population":"","latitude":41.6833344,"longitude":46.3},
{"country":"az","city":"kil'sya","accentcity":"Kil'sya","region":26.0,"population":"","latitude":40.13333,"longitude":46.1},
{"country":"az","city":"kil'syali","accentcity":"Kil'syali","region":19.0,"population":"","latitude":40.70184,"longitude":45.4636},
{"country":"az","city":"kil'syali","accentcity":"Kil'syali","region":26.0,"population":"","latitude":40.11748,"longitude":46.1914825},
{"country":"az","city":"kil'var","accentcity":"Kil'var","region":17.0,"population":"","latitude":41.2219849,"longitude":48.7341042},
{"country":"az","city":"kil'vyazy","accentcity":"Kil'vyazy","region":31.0,"population":"","latitude":38.6373253,"longitude":48.3365021},
{"country":"az","city":"kilyanchay","accentcity":"Kilyanchay","region":35.0,"population":"","latitude":39.0071831,"longitude":45.81903},
{"country":"az","city":"kilyazi","accentcity":"Kilyazi","region":63.0,"population":"","latitude":40.8709755,"longitude":49.3423347},
{"country":"az","city":"kimrakuch","accentcity":"Kimrakuch","region":65.0,"population":"","latitude":39.5391655,"longitude":47.02222},
{"country":"az","city":"kiordamir","accentcity":"Kiordamir","region":27.0,"population":"","latitude":40.36122,"longitude":48.1647072},
{"country":"az","city":"kiozun","accentcity":"Kiozun","region":44.0,"population":"","latitude":41.3349953,"longitude":48.1414146},
{"country":"az","city":"kirabin","accentcity":"Kirabin","region":31.0,"population":"","latitude":38.86667,"longitude":48.4},
{"country":"az","city":"kira","accentcity":"Kira","region":58.0,"population":"","latitude":40.80219,"longitude":45.6197128},
{"country":"az","city":"kiran","accentcity":"Kiran","region":58.0,"population":"","latitude":40.80219,"longitude":45.6197128},
{"country":"az","city":"kiravud","accentcity":"Kiravud","region":31.0,"population":"","latitude":38.83639,"longitude":48.4637451},
{"country":"az","city":"kirdidzhan","accentcity":"Kirdidzhan","region":64.0,"population":"","latitude":39.80361,"longitude":46.75028},
{"country":"az","city":"kiren","accentcity":"Kiren","region":58.0,"population":"","latitude":40.80219,"longitude":45.6197128},
{"country":"az","city":"kirkidzhan","accentcity":"Kirkidzhan","region":64.0,"population":"","latitude":39.80361,"longitude":46.75028},
{"country":"az","city":"kirk","accentcity":"Kirk","region":25.0,"population":"","latitude":40.6799049,"longitude":48.1090927},
{"country":"az","city":"kirna","accentcity":"Kirna","region":35.0,"population":"","latitude":39.13849,"longitude":45.6554375},
{"country":"az","city":"kirovabad","accentcity":"Kirovabad","region":20.0,"population":"","latitude":40.6827774,"longitude":46.3605576},
{"country":"az","city":"kirov adina","accentcity":"Kirov Adina","region":9.0,"population":"","latitude":40.43111,"longitude":50.03611},
{"country":"az","city":"kirova","accentcity":"Kirova","region":9.0,"population":"","latitude":40.43111,"longitude":50.03611},
{"country":"az","city":"kirovka","accentcity":"Kirovka","region":5.0,"population":"","latitude":41.08389,"longitude":45.495},
{"country":"az","city":"kirovka","accentcity":"Kirovka","region":13.0,"population":"","latitude":39.51799,"longitude":48.5034828},
{"country":"az","city":"kirovka","accentcity":"Kirovka","region":50.0,"population":"","latitude":40.5166664,"longitude":48.65},
{"country":"az","city":"kirovkand","accentcity":"Kirovkand","region":59.0,"population":"","latitude":40.45739,"longitude":47.78863},
{"country":"az","city":"kirovkend","accentcity":"Kirovkend","region":45.0,"population":"","latitude":39.8358,"longitude":48.6280823},
{"country":"az","city":"kirovkend","accentcity":"Kirovkend","region":59.0,"population":"","latitude":40.45739,"longitude":47.78863},
{"country":"az","city":"kirov","accentcity":"Kirov","region":9.0,"population":"","latitude":40.4333344,"longitude":49.85},
{"country":"az","city":"kirov","accentcity":"Kirov","region":29.0,"population":"","latitude":38.79403,"longitude":48.73597},
{"country":"az","city":"kirov","accentcity":"Kirov","region":52.0,"population":"","latitude":40.90278,"longitude":46.4541664},
{"country":"az","city":"kirov","accentcity":"Kirov","region":55.0,"population":"","latitude":39.639286,"longitude":46.607338},
{"country":"az","city":"kirovskiy","accentcity":"Kirovskiy","region":9.0,"population":34488.0,"latitude":40.4333344,"longitude":49.85},
{"country":"az","city":"kirovsk","accentcity":"Kirovsk","region":29.0,"population":"","latitude":38.79403,"longitude":48.73597},
{"country":"az","city":"kirowabad","accentcity":"Kirowabad","region":20.0,"population":"","latitude":40.6827774,"longitude":46.3605576},
{"country":"az","city":"kiryabin","accentcity":"Kiryabin","region":31.0,"population":"","latitude":38.86667,"longitude":48.4},
{"country":"az","city":"kirzan","accentcity":"Kirzan","region":58.0,"population":"","latitude":41.06602,"longitude":45.7688255},
{"country":"az","city":"kish","accentcity":"Kish","region":47.0,"population":"","latitude":41.253746,"longitude":47.19586},
{"country":"az","city":"kish-kishlak","accentcity":"Kish-Kishlak","region":47.0,"population":"","latitude":41.253746,"longitude":47.19586},
{"country":"az","city":"kishlag-abas","accentcity":"Kishlag-Abas","region":35.0,"population":"","latitude":39.4872665,"longitude":44.9937134},
{"country":"az","city":"kishlagkend","accentcity":"Kishlagkend","region":64.0,"population":"","latitude":39.9755745,"longitude":46.7170868},
{"country":"az","city":"kishlag","accentcity":"Kishlag","region":28.0,"population":"","latitude":39.60783,"longitude":46.7067642},
{"country":"az","city":"kishlak dyubendy","accentcity":"Kishlak Dyubendy","region":9.0,"population":"","latitude":40.43393,"longitude":50.2383766},
{"country":"az","city":"kishlak geoglyar","accentcity":"Kishlak Geoglyar","region":50.0,"population":"","latitude":40.4236031,"longitude":48.6140976},
{"country":"az","city":"kishlakh-kend","accentcity":"Kishlakh-kend","region":64.0,"population":"","latitude":39.9755745,"longitude":46.7170868},
{"country":"az","city":"kishlak khardashan","accentcity":"Kishlak Khardashan","region":9.0,"population":"","latitude":40.4247742,"longitude":50.26282},
{"country":"az","city":"kishlak khirt'","accentcity":"Kishlak Khirt'","region":42.0,"population":"","latitude":41.1275063,"longitude":48.5849838},
{"country":"az","city":"kishlak","accentcity":"Kishlak","region":14.0,"population":"","latitude":39.4720726,"longitude":47.04273},
{"country":"az","city":"kishlak ruchuk'","accentcity":"Kishlak Ruchuk'","region":42.0,"population":"","latitude":41.1322823,"longitude":48.6244431},
{"country":"az","city":"kishlak shakhan-dag","accentcity":"Kishlak Shakhan-Dag","region":41.0,"population":"","latitude":40.62417,"longitude":49.2283325},
{"country":"az","city":"kishlak utal'gi","accentcity":"Kishlak Utal'gi","region":1.0,"population":"","latitude":40.225,"longitude":49.3236122},
{"country":"az","city":"kishlak uzun-bara","accentcity":"Kishlak Uzun-Bara","region":1.0,"population":"","latitude":40.3662453,"longitude":49.26341},
{"country":"az","city":"kishlya","accentcity":"Kishlya","region":9.0,"population":"","latitude":40.3977776,"longitude":49.89861},
{"country":"az","city":"kishly","accentcity":"Kishly","region":9.0,"population":"","latitude":40.3977776,"longitude":49.89861},
{"country":"az","city":"kishty","accentcity":"Kishty","region":9.0,"population":"","latitude":40.3977776,"longitude":49.89861},
{"country":"az","city":"kisil-burun","accentcity":"Kisil-burun","region":53.0,"population":"","latitude":41.0776176,"longitude":49.1122551},
{"country":"az","city":"kis","accentcity":"Kis","region":47.0,"population":"","latitude":41.253746,"longitude":47.19586},
{"country":"az","city":"kis","accentcity":"Kis","region":65.0,"population":"","latitude":39.7752762,"longitude":47.02028},
{"country":"az","city":"kitly","accentcity":"Kitly","region":9.0,"population":"","latitude":40.3977776,"longitude":49.89861},
{"country":"az","city":"kivrag","accentcity":"Kivrag","region":35.0,"population":"","latitude":39.4019547,"longitude":45.11516},
{"country":"az","city":"kyukyu","accentcity":"Kyukyu","region":35.0,"population":"","latitude":39.5263138,"longitude":45.62035},
{"country":"az","city":"kyukyurd","accentcity":"Kyukyurd","region":19.0,"population":"","latitude":40.4,"longitude":45.8333321},
{"country":"az","city":"kyulatan","accentcity":"Kyulatan","region":32.0,"population":"","latitude":38.965416,"longitude":48.64681},
{"country":"az","city":"kyul'tepe","accentcity":"Kyul'tepe","region":35.0,"population":"","latitude":39.2714577,"longitude":45.45399},
{"country":"az","city":"kyulyulyu","accentcity":"Kyulyulyu","region":25.0,"population":"","latitude":40.6018867,"longitude":48.1582832},
{"country":"az","city":"kyulyus","accentcity":"Kyulyus","region":35.0,"population":"","latitude":39.3634338,"longitude":45.6616745},
{"country":"az","city":"kyumaty","accentcity":"Kyumaty","region":28.0,"population":"","latitude":39.72028,"longitude":46.3080559},
{"country":"az","city":"kyuncal","accentcity":"Ky�n�al","region":17.0,"population":"","latitude":41.0864754,"longitude":48.8149071},
{"country":"az","city":"kyunchal","accentcity":"Kyunchal","region":17.0,"population":"","latitude":41.0864754,"longitude":48.8149071},
{"country":"az","city":"kyupachilar","accentcity":"Kyupachilar","region":16.0,"population":"","latitude":40.3977776,"longitude":46.2080574},
{"country":"az","city":"kyupchal","accentcity":"Kyupchal","region":42.0,"population":"","latitude":41.3166656,"longitude":48.6833344},
{"country":"az","city":"kyurabazly","accentcity":"Kyurabazly","region":24.0,"population":"","latitude":39.7830544,"longitude":48.2044449},
{"country":"az","city":"kyurakchi","accentcity":"Kyurakchi","region":66.0,"population":"","latitude":38.8859444,"longitude":48.1302567},
{"country":"az","city":"kyurdabazly","accentcity":"Kyurdabazly","region":32.0,"population":"","latitude":39.0772247,"longitude":48.7262459},
{"country":"az","city":"kyurdakhany","accentcity":"Kyurdakhany","region":9.0,"population":"","latitude":40.5483322,"longitude":49.9219437},
{"country":"az","city":"kyurdakh","accentcity":"Kyurdakh","region":42.0,"population":"","latitude":41.17905,"longitude":48.50705},
{"country":"az","city":"kyurd-alilar","accentcity":"Kyurd-Alilar","region":62.0,"population":"","latitude":40.38861,"longitude":46.25111},
{"country":"az","city":"kyurdalilyar","accentcity":"Kyurdalilyar","region":62.0,"population":"","latitude":40.38861,"longitude":46.25111},
{"country":"az","city":"kyurdalylar","accentcity":"Kyurdalylar","region":62.0,"population":"","latitude":40.38861,"longitude":46.25111},
{"country":"az","city":"kyurdamir","accentcity":"Kyurdamir","region":27.0,"population":"","latitude":40.36122,"longitude":48.1647072},
{"country":"az","city":"kyurdamir","accentcity":"Kyurdamir","region":70.0,"population":"","latitude":41.41639,"longitude":46.6155548},
{"country":"az","city":"kyurdamish","accentcity":"Kyurdamish","region":22.0,"population":"","latitude":40.5864868,"longitude":47.7733841},
{"country":"az","city":"kyurdarmir","accentcity":"Kyurdarmir","region":27.0,"population":"","latitude":40.36122,"longitude":48.1647072},
{"country":"az","city":"kyurdasar","accentcity":"Kyurdasar","region":31.0,"population":"","latitude":38.8627777,"longitude":48.44389},
{"country":"az","city":"kyurd-bayram","accentcity":"Kyurd-Bayram","region":27.0,"population":"","latitude":40.5113564,"longitude":48.09048},
{"country":"az","city":"kyurdboragi","accentcity":"Kyurdboragi","region":11.0,"population":"","latitude":40.4099159,"longitude":47.0359535},
{"country":"az","city":"kyurdchullu","accentcity":"Kyurdchullu","region":35.0,"population":"","latitude":39.5333328,"longitude":44.9166679},