[
{"country":"fj","city":"kaivala","accentcity":"Kaivala","region":2.0,"population":"","latitude":-18.9666672,"longitude":178.416672},
{"country":"fj","city":"kalambo","accentcity":"Kalambo","region":1.0,"population":"","latitude":-18.083334,"longitude":178.483337},
{"country":"fj","city":"kaleta levu","accentcity":"Kaleta Levu","region":1.0,"population":"","latitude":-18.1333332,"longitude":178.316666},
{"country":"fj","city":"kaloka levu","accentcity":"Kaloka Levu","region":1.0,"population":"","latitude":-18.1333332,"longitude":178.316666},
{"country":"fj","city":"kalokolevu","accentcity":"Kalokolevu","region":1.0,"population":"","latitude":-18.1333332,"longitude":178.316666},
{"country":"fj","city":"kalvaka","accentcity":"Kalvaka","region":0.0,"population":"","latitude":-12.5166664,"longitude":177.116669},
{"country":"fj","city":"kamba","accentcity":"Kamba","region":1.0,"population":"","latitude":-18.0,"longitude":178.7},
{"country":"fj","city":"kambariki","accentcity":"Kambariki","region":1.0,"population":"","latitude":-19.15,"longitude":178.03334},
{"country":"fj","city":"kambisi","accentcity":"Kambisi","region":5.0,"population":"","latitude":-18.0666676,"longitude":177.366669},
{"country":"fj","city":"kana","accentcity":"Kana","region":1.0,"population":"","latitude":-17.7833328,"longitude":179.433334},
{"country":"fj","city":"kanakana","accentcity":"Kanakana","region":3.0,"population":"","latitude":-16.6166668,"longitude":179.866669},
{"country":"fj","city":"kanathea","accentcity":"Kanathea","region":3.0,"population":"","latitude":-16.9666672,"longitude":179.9},
{"country":"fj","city":"kandavu","accentcity":"Kandavu","region":2.0,"population":"","latitude":-19.0333328,"longitude":178.383331},
{"country":"fj","city":"kande","accentcity":"Kande","region":3.0,"population":"","latitude":-17.3666668,"longitude":179.383331},
{"country":"fj","city":"kandi","accentcity":"Kandi","region":3.0,"population":"","latitude":-16.8166676,"longitude":-179.85},
{"country":"fj","city":"karoko","accentcity":"Karoko","region":3.0,"population":"","latitude":-16.5166664,"longitude":179.916672},
{"country":"fj","city":"karomaci","accentcity":"Karomaci","region":1.0,"population":"","latitude":-19.1333332,"longitude":179.766663},
{"country":"fj","city":"kasaleka","accentcity":"Kasaleka","region":2.0,"population":"","latitude":-18.95,"longitude":178.383331},
{"country":"fj","city":"kasavu","accentcity":"Kasavu","region":1.0,"population":"","latitude":-17.9666672,"longitude":178.53334},
{"country":"fj","city":"kasenkula","accentcity":"Kasenkula","region":5.0,"population":"","latitude":-18.166666,"longitude":177.46666},
{"country":"fj","city":"kaunakoro","accentcity":"Kaunakoro","region":2.0,"population":"","latitude":-18.95,"longitude":178.383331},
{"country":"fj","city":"kavala","accentcity":"Kavala","region":2.0,"population":"","latitude":-18.9666672,"longitude":178.416672},
{"country":"fj","city":"kavula","accentcity":"Kavula","region":3.0,"population":"","latitude":-16.7333336,"longitude":178.75},
{"country":"fj","city":"keiasi","accentcity":"Keiasi","region":5.0,"population":"","latitude":-17.8833332,"longitude":177.75},
{"country":"fj","city":"keiaski","accentcity":"Keiaski","region":5.0,"population":"","latitude":-17.8833332,"longitude":177.75},
{"country":"fj","city":"keiyasi","accentcity":"Keiyasi","region":5.0,"population":"","latitude":-17.8833332,"longitude":177.75},
{"country":"fj","city":"kendra","accentcity":"Kendra","region":3.0,"population":"","latitude":-16.25,"longitude":179.816666},
{"country":"fj","city":"kese","accentcity":"Kese","region":5.0,"population":"","latitude":-17.1333332,"longitude":177.25},
{"country":"fj","city":"ketei","accentcity":"Ketei","region":0.0,"population":"","latitude":-18.95,"longitude":-179.816666},
{"country":"fj","city":"keteira","accentcity":"Keteira","region":1.0,"population":"","latitude":-18.6166668,"longitude":179.9},
{"country":"fj","city":"keua","accentcity":"Keua","region":0.0,"population":"","latitude":-12.5,"longitude":177.03334},
{"country":"fj","city":"kiombo","accentcity":"Kiombo","region":3.0,"population":"","latitude":-16.916666,"longitude":179.016663},
{"country":"fj","city":"kiti-i-ra","accentcity":"Kiti-i-ra","region":1.0,"population":"","latitude":-18.6166668,"longitude":179.9},
{"country":"fj","city":"kiura","accentcity":"Kiura","region":1.0,"population":"","latitude":-18.05,"longitude":178.683334},
{"country":"fj","city":"kiuva","accentcity":"Kiuva","region":1.0,"population":"","latitude":-18.05,"longitude":178.683334},
{"country":"fj","city":"kolokolevu","accentcity":"Kolokolevu","region":1.0,"population":"","latitude":-18.1333332,"longitude":178.316666},
{"country":"fj","city":"komari","accentcity":"Komari","region":5.0,"population":"","latitude":-18.2166672,"longitude":177.766663},
{"country":"fj","city":"komave","accentcity":"Komave","region":5.0,"population":"","latitude":-18.2166672,"longitude":177.766663},
{"country":"fj","city":"korobamba","accentcity":"Korobamba","region":1.0,"population":"","latitude":-17.8,"longitude":179.433334},
{"country":"fj","city":"koroinasolo","accentcity":"Koroinasolo","region":3.0,"population":"","latitude":-16.75,"longitude":178.53334},
{"country":"fj","city":"koroivonu","accentcity":"Koroivonu","region":3.0,"population":"","latitude":-16.5666676,"longitude":179.883331},
{"country":"fj","city":"koro i vunu","accentcity":"Koro i Vunu","region":3.0,"population":"","latitude":-16.5666676,"longitude":179.883331},
{"country":"fj","city":"koroiyatha","accentcity":"Koroiyatha","region":5.0,"population":"","latitude":-17.7333336,"longitude":177.46666},
{"country":"fj","city":"koro","accentcity":"Koro","region":5.0,"population":"","latitude":-17.7166672,"longitude":177.916672},
{"country":"fj","city":"koro kula","accentcity":"Koro Kula","region":5.0,"population":"","latitude":-17.35,"longitude":178.233337},
{"country":"fj","city":"korokula","accentcity":"Korokula","region":5.0,"population":"","latitude":-17.9833336,"longitude":177.28334},
{"country":"fj","city":"koro kula","accentcity":"Koro Kula","region":5.0,"population":"","latitude":-18.0166664,"longitude":177.55},
{"country":"fj","city":"korolevu","accentcity":"Korolevu","region":1.0,"population":"","latitude":-17.95,"longitude":178.6},
{"country":"fj","city":"korolevu","accentcity":"Korolevu","region":3.0,"population":"","latitude":-16.7333336,"longitude":179.483337},
{"country":"fj","city":"korolevu","accentcity":"Korolevu","region":5.0,"population":"","latitude":-17.8666668,"longitude":177.883331},
{"country":"fj","city":"koromathi","accentcity":"Koromathi","region":1.0,"population":"","latitude":-19.1333332,"longitude":179.766663},
{"country":"fj","city":"koro nandi","accentcity":"Koro Nandi","region":3.0,"population":"","latitude":-16.95,"longitude":178.766663},
{"country":"fj","city":"koronatonga","accentcity":"Koronatonga","region":3.0,"population":"","latitude":-16.6333332,"longitude":179.53334},
{"country":"fj","city":"koronggangga","accentcity":"Koronggangga","region":5.0,"population":"","latitude":-17.4833336,"longitude":177.65},
{"country":"fj","city":"koronisangana","accentcity":"Koronisangana","region":5.0,"population":"","latitude":-17.9833336,"longitude":177.633331},
{"country":"fj","city":"koronivonu","accentcity":"Koronivonu","region":3.0,"population":"","latitude":-16.5666676,"longitude":179.883331},
{"country":"fj","city":"koro-ono","accentcity":"Koro-Ono","region":0.0,"population":"","latitude":-20.6833324,"longitude":-178.71666},
{"country":"fj","city":"korosi","accentcity":"Korosi","region":3.0,"population":"","latitude":-16.7166672,"longitude":179.45},
{"country":"fj","city":"korosuli","accentcity":"Korosuli","region":1.0,"population":"","latitude":-17.7666664,"longitude":178.25},
{"country":"fj","city":"korotasere","accentcity":"Korotasere","region":3.0,"population":"","latitude":-16.5666676,"longitude":179.566666},
{"country":"fj","city":"koro tavea","accentcity":"Koro Tavea","region":1.0,"population":"","latitude":-17.833334,"longitude":178.383331},
{"country":"fj","city":"korothirithiri","accentcity":"Korothirithiri","region":1.0,"population":"","latitude":-18.0,"longitude":178.55},
{"country":"fj","city":"korothirithiri","accentcity":"Korothirithiri","region":5.0,"population":"","latitude":-17.9833336,"longitude":177.85},
{"country":"fj","city":"korotolu","accentcity":"Korotolu","region":0.0,"population":"","latitude":-18.65,"longitude":-178.483337},
{"country":"fj","city":"na luvunavuaka","accentcity":"Na Luvunavuaka","region":1.0,"population":"","latitude":-17.6166668,"longitude":178.516663},
{"country":"fj","city":"naluwai","accentcity":"Naluwai","region":1.0,"population":"","latitude":-17.833334,"longitude":178.333328},
{"country":"fj","city":"namalata","accentcity":"Namalata","region":2.0,"population":"","latitude":-19.05,"longitude":178.15},
{"country":"fj","city":"namalata","accentcity":"Namalata","region":3.0,"population":"","latitude":-16.916666,"longitude":179.0},
{"country":"fj","city":"namalavou","accentcity":"Namalavou","region":1.0,"population":"","latitude":-18.0666676,"longitude":178.616669},
{"country":"fj","city":"namama","accentcity":"Namama","region":3.0,"population":"","latitude":-16.45,"longitude":179.133331},
{"country":"fj","city":"namanda","accentcity":"Namanda","region":5.0,"population":"","latitude":-18.1833324,"longitude":177.616669},
{"country":"fj","city":"namandi","accentcity":"Namandi","region":1.0,"population":"","latitude":-18.1,"longitude":178.45},
{"country":"fj","city":"namanggumanggua","accentcity":"Namanggumanggua","region":1.0,"population":"","latitude":-18.25,"longitude":177.833328},
{"country":"fj","city":"namanusa","accentcity":"Namanusa","region":2.0,"population":"","latitude":-19.1333332,"longitude":178.133331},
{"country":"fj","city":"namarai","accentcity":"Namarai","region":5.0,"population":"","latitude":-17.5166664,"longitude":178.366669},
{"country":"fj","city":"namara","accentcity":"Namara","region":2.0,"population":"","latitude":-19.0333328,"longitude":178.233337},
{"country":"fj","city":"namara","accentcity":"Namara","region":5.0,"population":"","latitude":-17.35,"longitude":177.15},
{"country":"fj","city":"na-maria","accentcity":"Na-maria","region":5.0,"population":"","latitude":-17.5166664,"longitude":178.366669},
{"country":"fj","city":"namatakula","accentcity":"Namatakula","region":5.0,"population":"","latitude":-18.2333336,"longitude":177.78334},
{"country":"fj","city":"namata","accentcity":"Namata","region":1.0,"population":"","latitude":-17.9833336,"longitude":178.583328},
{"country":"fj","city":"namatana","accentcity":"Namatana","region":1.0,"population":"","latitude":-17.85,"longitude":179.433334},
{"country":"fj","city":"namathu","accentcity":"Namathu","region":3.0,"population":"","latitude":-17.35,"longitude":179.433334},
{"country":"fj","city":"namatiu","accentcity":"Namatiu","region":2.0,"population":"","latitude":-19.0166664,"longitude":178.416672},
{"country":"fj","city":"nambaitavo","accentcity":"Nambaitavo","region":1.0,"population":"","latitude":-17.833334,"longitude":178.366669},
{"country":"fj","city":"nambalambala","accentcity":"Nambalambala","region":5.0,"population":"","latitude":-17.5,"longitude":178.183334},
{"country":"fj","city":"nambalembale","accentcity":"Nambalembale","region":3.0,"population":"","latitude":-16.666666,"longitude":179.266663},
{"country":"fj","city":"nambathe","accentcity":"Nambathe","region":3.0,"population":"","latitude":-16.7333336,"longitude":179.366669},
{"country":"fj","city":"nambathi","accentcity":"Nambathi","region":3.0,"population":"","latitude":-16.7333336,"longitude":179.366669},
{"country":"fj","city":"nambau","accentcity":"Nambau","region":5.0,"population":"","latitude":-18.083334,"longitude":177.383331},
{"country":"fj","city":"nambauto","accentcity":"Nambauto","region":3.0,"population":"","latitude":-16.7666664,"longitude":179.35},
{"country":"fj","city":"nambavatu","accentcity":"Nambavatu","region":3.0,"population":"","latitude":-16.6,"longitude":178.916672},
{"country":"fj","city":"nambawangga","accentcity":"Nambawangga","region":5.0,"population":"","latitude":-17.7,"longitude":177.95},
{"country":"fj","city":"nambekavu","accentcity":"Nambekavu","region":3.0,"population":"","latitude":-16.5333328,"longitude":178.883331},
{"country":"fj","city":"nambena","accentcity":"Nambena","region":1.0,"population":"","latitude":-17.8166676,"longitude":178.316666},
{"country":"fj","city":"nambila","accentcity":"Nambila","region":5.0,"population":"","latitude":-17.8666668,"longitude":177.266663},
{"country":"fj","city":"nambiti","accentcity":"Nambiti","region":3.0,"population":"","latitude":-16.6,"longitude":178.9},
{"country":"fj","city":"nambitu","accentcity":"Nambitu","region":1.0,"population":"","latitude":-18.0666676,"longitude":178.6},
{"country":"fj","city":"nambothiwa","accentcity":"Nambothiwa","region":1.0,"population":"","latitude":-18.0666676,"longitude":178.633331},
{"country":"fj","city":"nambouono","accentcity":"Nambouono","region":3.0,"population":"","latitude":-16.15,"longitude":180.0},
{"country":"fj","city":"nambouthiwa","accentcity":"Nambouthiwa","region":1.0,"population":"","latitude":-18.0666676,"longitude":178.633331},
{"country":"fj","city":"namboutini","accentcity":"Namboutini","region":1.0,"population":"","latitude":-18.2333336,"longitude":177.816666},
{"country":"fj","city":"namboutini","accentcity":"Namboutini","region":3.0,"population":"","latitude":-16.333334,"longitude":179.816666},
{"country":"fj","city":"namboutini","accentcity":"Namboutini","region":5.0,"population":"","latitude":-17.7333336,"longitude":177.5},
{"country":"fj","city":"nambouva","accentcity":"Nambouva","region":1.0,"population":"","latitude":-17.7166672,"longitude":178.383331},
{"country":"fj","city":"nambouwalu","accentcity":"Nambouwalu","region":1.0,"population":"","latitude":-18.0,"longitude":178.7},
{"country":"fj","city":"nambouwalu","accentcity":"Nambouwalu","region":2.0,"population":"","latitude":-18.8833332,"longitude":178.46666},
{"country":"fj","city":"nambouwalu","accentcity":"Nambouwalu","region":3.0,"population":"","latitude":-17.0,"longitude":178.7},
{"country":"fj","city":"nambouwangga","accentcity":"Nambouwangga","region":5.0,"population":"","latitude":-17.7,"longitude":177.95},
{"country":"fj","city":"na-mbowono","accentcity":"Na-mbowono","region":3.0,"population":"","latitude":-16.45,"longitude":179.1},
{"country":"fj","city":"nambua","accentcity":"Nambua","region":1.0,"population":"","latitude":-18.1166668,"longitude":178.46666},
{"country":"fj","city":"nambua","accentcity":"Nambua","region":3.0,"population":"","latitude":-16.6833324,"longitude":179.483337},
{"country":"fj","city":"nambukaluka","accentcity":"Nambukaluka","region":1.0,"population":"","latitude":-17.9833336,"longitude":178.316666},
{"country":"fj","city":"nambukandongo","accentcity":"Nambukandongo","region":3.0,"population":"","latitude":-16.45,"longitude":179.116669},
{"country":"fj","city":"nambukandra","accentcity":"Nambukandra","region":5.0,"population":"","latitude":-17.55,"longitude":178.4},
{"country":"fj","city":"nambukavesi","accentcity":"Nambukavesi","region":1.0,"population":"","latitude":-18.166666,"longitude":178.25},
{"country":"fj","city":"nambukelevuira","accentcity":"Nambukelevuira","region":1.0,"population":"","latitude":-19.1333332,"longitude":177.96666},
{"country":"fj","city":"nambukelevu","accentcity":"Nambukelevu","region":1.0,"population":"","latitude":-18.1333332,"longitude":177.866669},
{"country":"fj","city":"nambukeru","accentcity":"Nambukeru","region":5.0,"population":"","latitude":-16.85,"longitude":177.46666},
{"country":"fj","city":"nambula","accentcity":"Nambula","region":5.0,"population":"","latitude":-17.55,"longitude":178.4},
{"country":"fj","city":"nambuli","accentcity":"Nambuli","region":1.0,"population":"","latitude":-18.1,"longitude":178.583328},
{"country":"fj","city":"nambulini","accentcity":"Nambulini","region":1.0,"population":"","latitude":-17.666666,"longitude":178.28334},
{"country":"fj","city":"nambumbu","accentcity":"Nambumbu","region":3.0,"population":"","latitude":-16.2,"longitude":179.71666},
{"country":"fj","city":"nambuna","accentcity":"Nambuna","region":1.0,"population":"","latitude":-18.1,"longitude":178.566666},
{"country":"fj","city":"nambuna","accentcity":"Nambuna","region":3.0,"population":"","latitude":-16.2166672,"longitude":179.733337},
{"country":"fj","city":"nambuna","accentcity":"Nambuna","region":5.0,"population":"","latitude":-17.4333324,"longitude":177.866669},
{"country":"fj","city":"nambundrau","accentcity":"Nambundrau","region":1.0,"population":"","latitude":-18.1,"longitude":178.6},
{"country":"fj","city":"nambuniganitu","accentcity":"Nambuniganitu","region":5.0,"population":"","latitude":-17.9,"longitude":177.883331},
{"country":"fj","city":"nambuniyanitu","accentcity":"Nambuniyanitu","region":5.0,"population":"","latitude":-17.9,"longitude":177.883331},
{"country":"fj","city":"ndraumbuta","accentcity":"Ndraumbuta","region":1.0,"population":"","latitude":-18.0666676,"longitude":178.583328},
{"country":"fj","city":"ndraumbuta","accentcity":"Ndraumbuta","region":5.0,"population":"","latitude":-17.916666,"longitude":177.9},
{"country":"fj","city":"ndrauniivi","accentcity":"Ndrauniivi","region":5.0,"population":"","latitude":-17.416666,"longitude":178.0},
{"country":"fj","city":"ndraunindakua","accentcity":"Ndraunindakua","region":1.0,"population":"","latitude":-17.75,"longitude":178.21666},
{"country":"fj","city":"ndravawalu","accentcity":"Ndravawalu","region":2.0,"population":"","latitude":-19.0,"longitude":178.3},
{"country":"fj","city":"ndravo","accentcity":"Ndravo","region":1.0,"population":"","latitude":-18.0166664,"longitude":178.616669},
{"country":"fj","city":"ndravualu","accentcity":"Ndravualu","region":0.0,"population":"","latitude":-18.9333324,"longitude":-179.866669},
{"country":"fj","city":"ndravuni","accentcity":"Ndravuni","region":1.0,"population":"","latitude":-17.916666,"longitude":178.583328},
{"country":"fj","city":"ndravuni","accentcity":"Ndravuni","region":2.0,"population":"","latitude":-18.7666664,"longitude":178.53334},
{"country":"fj","city":"ndravuwalu","accentcity":"Ndravuwalu","region":0.0,"population":"","latitude":-18.9333324,"longitude":-179.866669},
{"country":"fj","city":"ndravuwalu","accentcity":"Ndravuwalu","region":2.0,"population":"","latitude":-19.0,"longitude":178.3},
{"country":"fj","city":"ndrekena","accentcity":"Ndrekena","region":1.0,"population":"","latitude":-18.1166668,"longitude":178.566666},
{"country":"fj","city":"ndrekeniwai","accentcity":"Ndrekeniwai","region":1.0,"population":"","latitude":-17.7,"longitude":178.366669},
{"country":"fj","city":"ndrekeniwai","accentcity":"Ndrekeniwai","region":3.0,"population":"","latitude":-16.666666,"longitude":179.683334},
{"country":"fj","city":"ndreketilailai","accentcity":"Ndreketilailai","region":3.0,"population":"","latitude":-16.4666672,"longitude":179.46666},
{"country":"fj","city":"ndreketi","accentcity":"Ndreketi","region":3.0,"population":"","latitude":-16.7,"longitude":179.266663},
{"country":"fj","city":"ndriti","accentcity":"Ndriti","region":3.0,"population":"","latitude":-16.8833332,"longitude":178.733337},
{"country":"fj","city":"ndromoninuku","accentcity":"Ndromoninuku","region":3.0,"population":"","latitude":-16.7833328,"longitude":179.566666},
{"country":"fj","city":"ndromuna","accentcity":"Ndromuna","region":1.0,"population":"","latitude":-18.0,"longitude":178.7},
{"country":"fj","city":"ndromuninuku","accentcity":"Ndromuninuku","region":3.0,"population":"","latitude":-16.7833328,"longitude":179.566666},
{"country":"fj","city":"ndrue","accentcity":"Ndrue","region":2.0,"population":"","latitude":-19.0,"longitude":178.166672},
{"country":"fj","city":"ngaleine","accentcity":"Ngaleine","region":3.0,"population":"","latitude":-16.7666664,"longitude":-179.85},
{"country":"fj","city":"ngaligali","accentcity":"Ngaligali","region":0.0,"population":"","latitude":-18.9333324,"longitude":-178.933334},
{"country":"fj","city":"ngalingali","accentcity":"Ngalingali","region":0.0,"population":"","latitude":-18.9333324,"longitude":-178.933334},
{"country":"fj","city":"ngaloa","accentcity":"Ngaloa","region":1.0,"population":"","latitude":-18.2666664,"longitude":178.0},
{"country":"fj","city":"ngaloa","accentcity":"Ngaloa","region":2.0,"population":"","latitude":-19.083334,"longitude":178.183334},
{"country":"fj","city":"ngaloa","accentcity":"Ngaloa","region":3.0,"population":"","latitude":-16.6166668,"longitude":178.683334},
{"country":"fj","city":"ngaravutu","accentcity":"Ngaravutu","region":3.0,"population":"","latitude":-16.5333328,"longitude":179.8},
{"country":"fj","city":"ngasauva","accentcity":"Ngasauva","region":3.0,"population":"","latitude":-16.166666,"longitude":179.983337},
{"country":"fj","city":"ngasele","accentcity":"Ngasele","region":2.0,"population":"","latitude":-18.95,"longitude":178.3},
{"country":"fj","city":"ngeleni","accentcity":"Ngeleni","region":3.0,"population":"","latitude":-16.7666664,"longitude":-179.85},
{"country":"fj","city":"nggaliira","accentcity":"Nggaliira","region":1.0,"population":"","latitude":-19.15,"longitude":177.983337},
{"country":"fj","city":"nggalikarua","accentcity":"Nggalikarua","region":1.0,"population":"","latitude":-19.166666,"longitude":179.78334},
{"country":"fj","city":"nggalira","accentcity":"Nggalira","region":1.0,"population":"","latitude":-19.15,"longitude":177.983337},
{"country":"fj","city":"nggarani","accentcity":"Nggarani","region":1.0,"population":"","latitude":-17.95,"longitude":179.28334},
{"country":"fj","city":"nggaranivai","accentcity":"Nggaranivai","region":3.0,"population":"","latitude":-16.2166672,"longitude":179.833328},
{"country":"fj","city":"nggaravutu","accentcity":"Nggaravutu","region":3.0,"population":"","latitude":-16.5333328,"longitude":179.8},
{"country":"fj","city":"nggathavula","accentcity":"Nggathavula","region":3.0,"population":"","latitude":-16.8666668,"longitude":179.96666},
{"country":"fj","city":"nggathavulu","accentcity":"Nggathavulu","region":3.0,"population":"","latitude":-16.8666668,"longitude":179.96666},
{"country":"fj","city":"nggelekuro","accentcity":"Nggelekuro","region":1.0,"population":"","latitude":-17.6333332,"longitude":178.55},
{"country":"fj","city":"nggelemumu","accentcity":"Nggelemumu","region":3.0,"population":"","latitude":-16.4,"longitude":179.46666},
{"country":"fj","city":"nggelendamu","accentcity":"Nggelendamu","region":1.0,"population":"","latitude":-18.0,"longitude":178.55},
{"country":"fj","city":"nggeleni","accentcity":"Nggeleni","region":3.0,"population":"","latitude":-16.7666664,"longitude":-179.85},
{"country":"fj","city":"nggeleni","accentcity":"Nggeleni","region":5.0,"population":"","latitude":-17.1166668,"longitude":177.25},
{"country":"fj","city":"nggelethimbi","accentcity":"Nggelethimbi","region":5.0,"population":"","latitude":-17.583334,"longitude":178.1},
{"country":"fj","city":"nggelewara","accentcity":"Nggelewara","region":3.0,"population":"","latitude":-16.25,"longitude":179.616669},
{"country":"fj","city":"nggilai","accentcity":"Nggilai","region":1.0,"population":"","latitude":-18.1833324,"longitude":178.25},
{"country":"fj","city":"nggoma","accentcity":"Nggoma","region":1.0,"population":"","latitude":-17.6333332,"longitude":178.583328},
{"country":"fj","city":"ngunu","accentcity":"Ngunu","region":5.0,"population":"","latitude":-17.083334,"longitude":177.25},
{"country":"fj","city":"ngusuitoto","accentcity":"Ngusuitoto","region":1.0,"population":"","latitude":-18.25,"longitude":177.983337},
{"country":"fj","city":"nia vakamothe","accentcity":"Nia Vakamothe","region":1.0,"population":"","latitude":-18.1166668,"longitude":178.333328},
{"country":"fj","city":"nikorokoro","accentcity":"Nikorokoro","region":2.0,"population":"","latitude":-18.9833336,"longitude":178.2},
{"country":"fj","city":"nirikoso","accentcity":"Nirikoso","region":2.0,"population":"","latitude":-18.916666,"longitude":178.516663},
{"country":"fj","city":"niumbasanga","accentcity":"Niumbasanga","region":1.0,"population":"","latitude":-17.7833328,"longitude":178.75},
{"country":"fj","city":"niundua","accentcity":"Niundua","region":2.0,"population":"","latitude":-19.0166664,"longitude":178.35},
{"country":"fj","city":"niurua","accentcity":"Niurua","region":3.0,"population":"","latitude":-16.4833336,"longitude":178.96666},
{"country":"fj","city":"niutoto","accentcity":"Niutoto","region":0.0,"population":"","latitude":-12.5166664,"longitude":177.05},
{"country":"fj","city":"nivotavota","accentcity":"Nivotavota","region":2.0,"population":"","latitude":-19.0,"longitude":178.46666},
{"country":"fj","city":"noatau","accentcity":"Noatau","region":0.0,"population":"","latitude":-12.5166664,"longitude":177.133331},
{"country":"fj","city":"nogilai","accentcity":"Nogilai","region":1.0,"population":"","latitude":-18.1833324,"longitude":178.25},
{"country":"fj","city":"nokulau","accentcity":"Nokulau","region":5.0,"population":"","latitude":-17.65,"longitude":178.133331},
{"country":"fj","city":"nondaulau","accentcity":"Nondaulau","region":5.0,"population":"","latitude":-18.1333332,"longitude":177.4},
{"country":"fj","city":"noraimba","accentcity":"Noraimba","region":5.0,"population":"","latitude":-17.8666668,"longitude":177.766663},
{"country":"fj","city":"novalau","accentcity":"Novalau","region":5.0,"population":"","latitude":-17.3833332,"longitude":178.25},
{"country":"fj","city":"visoto","accentcity":"Visoto","region":1.0,"population":"","latitude":-17.7333336,"longitude":178.8},
{"country":"fj","city":"vitawa","accentcity":"Vitawa","region":5.0,"population":"","latitude":-17.3666668,"longitude":178.116669},
{"country":"fj","city":"vitina","accentcity":"Vitina","region":3.0,"population":"","latitude":-16.3166676,"longitude":179.71666},
{"country":"fj","city":"vitongo","accentcity":"Vitongo","region":5.0,"population":"","latitude":-17.6,"longitude":177.5},
{"country":"fj","city":"vivili","accentcity":"Vivili","region":3.0,"population":"","latitude":-16.8,"longitude":179.383331},
{"country":"fj","city":"viwa","accentcity":"Viwa","region":1.0,"population":"","latitude":-17.95,"longitude":178.616669},
{"country":"fj","city":"volinangerua","accentcity":"Volinangerua","region":5.0,"population":"","latitude":-17.9666672,"longitude":177.71666},
{"country":"fj","city":"volivoli","accentcity":"Volivoli","region":5.0,"population":"","latitude":-18.166666,"longitude":177.483337},
{"country":"fj","city":"vorovoro","accentcity":"Vorovoro","region":1.0,"population":"","latitude":-17.6333332,"longitude":178.483337},
{"country":"fj","city":"votualailai","accentcity":"Votualailai","region":5.0,"population":"","latitude":-18.2,"longitude":177.7},
{"country":"fj","city":"votua","accentcity":"Votua","region":5.0,"population":"","latitude":-16.666666,"longitude":178.71666},
{"country":"fj","city":"voua","accentcity":"Voua","region":5.0,"population":"","latitude":-18.1333332,"longitude":177.433334},
{"country":"fj","city":"vou-nuku","accentcity":"Vou-nuku","region":1.0,"population":"","latitude":-18.583334,"longitude":179.916672},
{"country":"fj","city":"vuake","accentcity":"Vuake","region":5.0,"population":"","latitude":-16.9666672,"longitude":177.35},
{"country":"fj","city":"vuandomo","accentcity":"Vuandomo","region":3.0,"population":"","latitude":-16.7166672,"longitude":179.316666},
{"country":"fj","city":"vua","accentcity":"Vua","region":3.0,"population":"","latitude":-16.3666668,"longitude":179.366669},
{"country":"fj","city":"vuinakawakawa","accentcity":"Vuinakawakawa","region":3.0,"population":"","latitude":-16.5166664,"longitude":179.316666},
{"country":"fj","city":"vuinandi","accentcity":"Vuinandi","region":3.0,"population":"","latitude":-16.6,"longitude":179.55},
{"country":"fj","city":"vuinanggalutu","accentcity":"Vuinanggalutu","region":3.0,"population":"","latitude":-16.6333332,"longitude":178.983337},
{"country":"fj","city":"vuinmono","accentcity":"Vuinmono","region":1.0,"population":"","latitude":-18.0333328,"longitude":178.53334},
{"country":"fj","city":"vuiranggilai","accentcity":"Vuiranggilai","region":3.0,"population":"","latitude":-16.55,"longitude":179.233337},
{"country":"fj","city":"vukavu","accentcity":"Vukavu","region":2.0,"population":"","latitude":-19.0166664,"longitude":178.333328},
{"country":"fj","city":"vulovi","accentcity":"Vulovi","region":3.0,"population":"","latitude":-16.416666,"longitude":179.4},
{"country":"fj","city":"vuluna","accentcity":"Vuluna","region":3.0,"population":"","latitude":-17.1833324,"longitude":-178.96666},
{"country":"fj","city":"vuma","accentcity":"Vuma","region":1.0,"population":"","latitude":-17.666666,"longitude":178.833328},
{"country":"fj","city":"vunambua","accentcity":"Vunambua","region":5.0,"population":"","latitude":-18.1333332,"longitude":177.333328},
{"country":"fj","city":"vunamoli","accentcity":"Vunamoli","region":5.0,"population":"","latitude":-17.95,"longitude":177.483337},
{"country":"fj","city":"vunanggoru","accentcity":"Vunanggoru","region":5.0,"population":"","latitude":-17.9833336,"longitude":177.65},
{"country":"fj","city":"vunanitu","accentcity":"Vunanitu","region":5.0,"population":"","latitude":-18.1833324,"longitude":177.616669},
{"country":"fj","city":"vunaniu","accentcity":"Vunaniu","region":1.0,"population":"","latitude":-18.25,"longitude":177.866669},
{"country":"fj","city":"vuna nui","accentcity":"Vuna Nui","region":1.0,"population":"","latitude":-18.25,"longitude":177.866669},
{"country":"fj","city":"vunatoto","accentcity":"Vunatoto","region":5.0,"population":"","latitude":-17.95,"longitude":177.866669},
{"country":"fj","city":"vunatovau","accentcity":"Vunatovau","region":5.0,"population":"","latitude":-18.1,"longitude":177.483337},
{"country":"fj","city":"vunavutu","accentcity":"Vunavutu","region":5.0,"population":"","latitude":-18.166666,"longitude":177.5},
{"country":"fj","city":"vunayasi","accentcity":"Vunayasi","region":5.0,"population":"","latitude":-17.8166676,"longitude":177.416672},
{"country":"fj","city":"vunayawa","accentcity":"Vunayawa","region":5.0,"population":"","latitude":-18.1333332,"longitude":177.633331},
{"country":"fj","city":"vunievu","accentcity":"Vunievu","region":3.0,"population":"","latitude":-16.8,"longitude":178.55},
{"country":"fj","city":"vuniivisavu","accentcity":"Vuniivisavu","region":1.0,"population":"","latitude":-17.7,"longitude":178.8},
{"country":"fj","city":"vunikondi","accentcity":"Vunikondi","region":3.0,"population":"","latitude":-16.1333332,"longitude":180.0},
{"country":"fj","city":"vunikura","accentcity":"Vunikura","region":3.0,"population":"","latitude":-16.6833324,"longitude":179.866669},
{"country":"fj","city":"vunilangi","accentcity":"Vunilangi","region":3.0,"population":"","latitude":-16.75,"longitude":179.65},
{"country":"fj","city":"vunimanggo","accentcity":"Vunimanggo","region":1.0,"population":"","latitude":-18.2666664,"longitude":178.016663},
{"country":"fj","city":"vunimbau","accentcity":"Vunimbau","region":1.0,"population":"","latitude":-18.05,"longitude":178.133331},
{"country":"fj","city":"vunimoli","accentcity":"Vunimoli","region":3.0,"population":"","latitude":-16.45,"longitude":179.233337},
{"country":"fj","city":"vunimoli","accentcity":"Vunimoli","region":5.0,"population":"","latitude":-16.9333324,"longitude":177.366669},
{"country":"fj","city":"vunimono","accentcity":"Vunimono","region":1.0,"population":"","latitude":-18.0333328,"longitude":178.53334},
{"country":"fj","city":"vunindamoli","accentcity":"Vunindamoli","region":3.0,"population":"","latitude":-16.7333336,"longitude":179.15},
{"country":"fj","city":"vunindawa government station","accentcity":"Vunindawa Government Station","region":1.0,"population":"","latitude":-17.8166676,"longitude":178.316666},
{"country":"fj","city":"vunindawa","accentcity":"Vunindawa","region":1.0,"population":"","latitude":-17.8166676,"longitude":178.316666},
{"country":"fj","city":"vunindongoloa","accentcity":"Vunindongoloa","region":3.0,"population":"","latitude":-16.666666,"longitude":179.5},
{"country":"fj","city":"vunindongoloa","accentcity":"Vunindongoloa","region":5.0,"population":"","latitude":-17.3666668,"longitude":178.066666},
{"country":"fj","city":"vunindumba","accentcity":"Vunindumba","region":1.0,"population":"","latitude":-17.833334,"longitude":178.28334},
{"country":"fj","city":"vuniniundrovu","accentcity":"Vuniniundrovu","region":1.0,"population":"","latitude":-18.0166664,"longitude":178.5},
{"country":"fj","city":"vunisea station","accentcity":"Vunisea Station","region":2.0,"population":"","latitude":-19.05,"longitude":178.166672},
{"country":"fj","city":"vunisea","accentcity":"Vunisea","region":1.0,"population":"","latitude":-18.05,"longitude":178.55},
{"country":"fj","city":"vunisea","accentcity":"Vunisea","region":2.0,"population":"","latitude":-19.05,"longitude":178.166672},
{"country":"fj","city":"vunisea","accentcity":"Vunisea","region":3.0,"population":"","latitude":-16.6166668,"longitude":178.916672},
{"country":"fj","city":"vunisea","accentcity":"Vunisea","region":5.0,"population":"","latitude":-17.4833336,"longitude":178.15},
{"country":"fj","city":"vunisei","accentcity":"Vunisei","region":1.0,"population":"","latitude":-18.05,"longitude":178.55},
{"country":"fj","city":"vunisei","accentcity":"Vunisei","region":2.0,"population":"","latitude":-18.9833336,"longitude":178.28334},
{"country":"fj","city":"vunisimu","accentcity":"Vunisimu","region":1.0,"population":"","latitude":-18.1166668,"longitude":178.583328},
{"country":"fj","city":"vunisinga","accentcity":"Vunisinga","region":1.0,"population":"","latitude":-17.8166676,"longitude":178.333328},
{"country":"fj","city":"vunisinu","accentcity":"Vunisinu","region":1.0,"population":"","latitude":-18.1166668,"longitude":178.583328},
{"country":"fj","city":"vunisotho","accentcity":"Vunisotho","region":1.0,"population":"","latitude":-18.166666,"longitude":178.28334},
{"country":"fj","city":"matailombau","accentcity":"Matailombau","region":1.0,"population":"","latitude":-17.8166676,"longitude":178.316666},
{"country":"fj","city":"matai","accentcity":"Matai","region":1.0,"population":"","latitude":-17.8833332,"longitude":178.4},
{"country":"fj","city":"matainananu","accentcity":"Matainananu","region":5.0,"population":"","latitude":-17.5666676,"longitude":178.433334},
{"country":"fj","city":"matainasau","accentcity":"Matainasau","region":1.0,"population":"","latitude":-17.7833328,"longitude":178.116669},
{"country":"fj","city":"matainimoli","accentcity":"Matainimoli","region":1.0,"population":"","latitude":-18.083334,"longitude":178.6},
{"country":"fj","city":"matainotho","accentcity":"Matainotho","region":1.0,"population":"","latitude":-18.05,"longitude":178.616669},
{"country":"fj","city":"mataithangi","accentcity":"Mataithangi","region":3.0,"population":"","latitude":-16.416666,"longitude":179.083328},
{"country":"fj","city":"mataithang","accentcity":"Mataithang","region":3.0,"population":"","latitude":-16.416666,"longitude":179.083328},
{"country":"fj","city":"matakula","accentcity":"Matakula","region":5.0,"population":"","latitude":-18.2333336,"longitude":177.78334},
{"country":"fj","city":"mataleka","accentcity":"Mataleka","region":1.0,"population":"","latitude":-17.9,"longitude":178.383331},
{"country":"fj","city":"matalolo","accentcity":"Matalolo","region":3.0,"population":"","latitude":-16.5666676,"longitude":179.416672},
{"country":"fj","city":"matamaivere","accentcity":"Matamaivere","region":1.0,"population":"","latitude":-17.95,"longitude":178.583328},
{"country":"fj","city":"matameivere","accentcity":"Matameivere","region":1.0,"population":"","latitude":-17.95,"longitude":178.583328},
{"country":"fj","city":"matanangata","accentcity":"Matanangata","region":5.0,"population":"","latitude":-17.5,"longitude":177.866669},
{"country":"fj","city":"mataniwai","accentcity":"Mataniwai","region":3.0,"population":"","latitude":-16.333334,"longitude":179.433334},
{"country":"fj","city":"mataniwai","accentcity":"Mataniwai","region":5.0,"population":"","latitude":-17.4833336,"longitude":178.2},
{"country":"fj","city":"matanuku","accentcity":"Matanuku","region":1.0,"population":"","latitude":-19.166666,"longitude":178.1},
{"country":"fj","city":"matasawalevu","accentcity":"Matasawalevu","region":2.0,"population":"","latitude":-19.0,"longitude":178.46666},
{"country":"fj","city":"mataso","accentcity":"Mataso","region":2.0,"population":"","latitude":-19.0166664,"longitude":178.25},
{"country":"fj","city":"matathauthau","accentcity":"Matathauthau","region":1.0,"population":"","latitude":-17.7833328,"longitude":178.583328},
{"country":"fj","city":"matathawalevu","accentcity":"Matathawalevu","region":5.0,"population":"","latitude":-16.95,"longitude":177.366669},
{"country":"fj","city":"matathula","accentcity":"Matathula","region":1.0,"population":"","latitude":-17.7666664,"longitude":178.566666},
{"country":"fj","city":"mataveikai","accentcity":"Mataveikai","region":5.0,"population":"","latitude":-17.4833336,"longitude":178.2},
{"country":"fj","city":"matavuralevu","accentcity":"Matavuralevu","region":1.0,"population":"","latitude":-18.25,"longitude":178.05},
{"country":"fj","city":"matawailevu","accentcity":"Matawailevu","region":1.0,"population":"","latitude":-17.8666668,"longitude":178.083328},
{"country":"fj","city":"matawailevu","accentcity":"Matawailevu","region":5.0,"population":"","latitude":-17.5166664,"longitude":178.25},
{"country":"fj","city":"matayalevu","accentcity":"Matayalevu","region":5.0,"population":"","latitude":-17.0,"longitude":177.333328},
{"country":"fj","city":"mathuata-i-wai","accentcity":"Mathuata-i-Wai","region":3.0,"population":"","latitude":-16.416666,"longitude":179.083328},
{"country":"fj","city":"matokana","accentcity":"Matokana","region":0.0,"population":"","latitude":-20.6833324,"longitude":-178.71666},
{"country":"fj","city":"matokana","accentcity":"Matokana","region":5.0,"population":"","latitude":-17.9833336,"longitude":177.85},
{"country":"fj","city":"mau","accentcity":"Mau","region":1.0,"population":"","latitude":-18.1833324,"longitude":178.233337},
{"country":"fj","city":"maumi","accentcity":"Maumi","region":1.0,"population":"","latitude":-18.0,"longitude":178.583328},
{"country":"fj","city":"mavana","accentcity":"Mavana","region":3.0,"population":"","latitude":-17.2166672,"longitude":-178.933334},
{"country":"fj","city":"mavua","accentcity":"Mavua","region":5.0,"population":"","latitude":-18.0166664,"longitude":177.55},
{"country":"fj","city":"mbaindamundamu","accentcity":"Mbaindamundamu","region":2.0,"population":"","latitude":-19.083334,"longitude":178.116669},
{"country":"fj","city":"mbalekinanga","accentcity":"Mbalekinanga","region":5.0,"population":"","latitude":-17.666666,"longitude":178.333328},
{"country":"fj","city":"mbalenambelo","accentcity":"Mbalenambelo","region":5.0,"population":"","latitude":-18.166666,"longitude":177.616669},
{"country":"fj","city":"mbalesere","accentcity":"Mbalesere","region":5.0,"population":"","latitude":-17.6,"longitude":178.1},
{"country":"fj","city":"mbalevuto","accentcity":"Mbalevuto","region":5.0,"population":"","latitude":-17.65,"longitude":177.71666},
{"country":"fj","city":"mba","accentcity":"Mba","region":5.0,"population":"","latitude":-17.5333328,"longitude":177.7},
{"country":"fj","city":"mbangasau","accentcity":"Mbangasau","region":3.0,"population":"","latitude":-16.7166672,"longitude":179.733337},
{"country":"fj","city":"mbangata","accentcity":"Mbangata","region":3.0,"population":"","latitude":-16.666666,"longitude":179.3},
{"country":"fj","city":"mbanikea","accentcity":"Mbanikea","region":3.0,"population":"","latitude":-16.7666664,"longitude":178.75},
{"country":"fj","city":"mbanikeya","accentcity":"Mbanikeya","region":3.0,"population":"","latitude":-16.7666664,"longitude":178.75},
{"country":"fj","city":"mbariki","accentcity":"Mbariki","region":1.0,"population":"","latitude":-19.15,"longitude":178.03334},
{"country":"fj","city":"mbarotu","accentcity":"Mbarotu","region":5.0,"population":"","latitude":-17.4833336,"longitude":178.233337},
{"country":"fj","city":"mbatimaoli","accentcity":"Mbatimaoli","region":5.0,"population":"","latitude":-17.7,"longitude":177.866669},
{"country":"fj","city":"mbatinikama","accentcity":"Mbatinikama","region":3.0,"population":"","latitude":-16.4666672,"longitude":179.433334},
{"country":"fj","city":"mbatiri","accentcity":"Mbatiri","region":3.0,"population":"","latitude":-16.6,"longitude":179.03334},
{"country":"fj","city":"mbatiri","accentcity":"Mbatiri","region":5.0,"population":"","latitude":-18.083334,"longitude":177.316666},
{"country":"fj","city":"mbaulevu","accentcity":"Mbaulevu","region":1.0,"population":"","latitude":-17.9666672,"longitude":178.433334},
{"country":"fj","city":"mbau","accentcity":"Mbau","region":1.0,"population":"","latitude":-17.9666672,"longitude":178.616669},
{"country":"fj","city":"mbavu","accentcity":"Mbavu","region":5.0,"population":"","latitude":-17.95,"longitude":177.28334},
{"country":"fj","city":"mbemana","accentcity":"Mbemana","region":5.0,"population":"","latitude":-17.9666672,"longitude":177.71666},
{"country":"fj","city":"mbengga","accentcity":"Mbengga","region":1.0,"population":"","latitude":-18.1,"longitude":178.066666},
{"country":"fj","city":"mbiaungunu","accentcity":"Mbiaungunu","region":3.0,"population":"","latitude":-16.45,"longitude":179.733337},
{"country":"fj","city":"mbiausevu","accentcity":"Mbiausevu","region":5.0,"population":"","latitude":-18.1833324,"longitude":177.75},
{"country":"fj","city":"mboitathi","accentcity":"Mboitathi","region":3.0,"population":"","latitude":-17.25,"longitude":-178.933334},
{"country":"fj","city":"mboma","accentcity":"Mboma","region":3.0,"population":"","latitude":-16.8166676,"longitude":-179.866669},
{"country":"fj","city":"mbotenaulu","accentcity":"Mbotenaulu","region":1.0,"population":"","latitude":-17.8166676,"longitude":178.116669},
{"country":"fj","city":"mbouma","accentcity":"Mbouma","region":3.0,"population":"","latitude":-16.8166676,"longitude":-179.866669},
{"country":"fj","city":"mboumba","accentcity":"Mboumba","region":3.0,"population":"","latitude":-16.8166676,"longitude":-179.866669},
{"country":"fj","city":"mboutini","accentcity":"Mboutini","region":3.0,"population":"","latitude":-16.333334,"longitude":179.816666},
{"country":"fj","city":"mboutini","accentcity":"Mboutini","region":5.0,"population":"","latitude":-17.7333336,"longitude":177.5},
{"country":"fj","city":"nasaumatua","accentcity":"Nasaumatua","region":1.0,"population":"","latitude":-17.6833324,"longitude":178.8},
{"country":"fj","city":"nasau","accentcity":"Nasau","region":0.0,"population":"","latitude":-18.666666,"longitude":-178.5},
{"country":"fj","city":"nasau","accentcity":"Nasau","region":1.0,"population":"","latitude":-17.7333336,"longitude":178.433334},
{"country":"fj","city":"nasau","accentcity":"Nasau","region":3.0,"population":"","latitude":-16.666666,"longitude":178.583328},
{"country":"fj","city":"nasau","accentcity":"Nasau","region":5.0,"population":"","latitude":-17.45,"longitude":178.316666},
{"country":"fj","city":"nasauthoko","accentcity":"Nasauthoko","region":5.0,"population":"","latitude":-17.8833332,"longitude":177.7},
{"country":"fj","city":"nasautoka","accentcity":"Nasautoka","region":1.0,"population":"","latitude":-17.7333336,"longitude":178.383331},
{"country":"fj","city":"nasauva","accentcity":"Nasauva","region":3.0,"population":"","latitude":-16.166666,"longitude":179.983337},
{"country":"fj","city":"nasauvere","accentcity":"Nasauvere","region":1.0,"population":"","latitude":-17.8833332,"longitude":178.083328},
{"country":"fj","city":"nasauvuki","accentcity":"Nasauvuki","region":1.0,"population":"","latitude":-17.7666664,"longitude":178.75},
{"country":"fj","city":"nasava","accentcity":"Nasava","region":1.0,"population":"","latitude":-17.8833332,"longitude":178.083328},
{"country":"fj","city":"nasava","accentcity":"Nasava","region":5.0,"population":"","latitude":-17.3833332,"longitude":178.1},
{"country":"fj","city":"nasavu","accentcity":"Nasavu","region":1.0,"population":"","latitude":-17.85,"longitude":178.316666},
{"country":"fj","city":"nasavu","accentcity":"Nasavu","region":3.0,"population":"","latitude":-16.95,"longitude":178.78334},
{"country":"fj","city":"nasawana","accentcity":"Nasawana","region":3.0,"population":"","latitude":-16.916666,"longitude":178.8},
{"country":"fj","city":"nasawasa","accentcity":"Nasawasa","region":3.0,"population":"","latitude":-16.4333324,"longitude":179.166672},
{"country":"fj","city":"nasealevu","accentcity":"Nasealevu","region":3.0,"population":"","latitude":-16.5666676,"longitude":179.25},
{"country":"fj","city":"nasea","accentcity":"Nasea","region":3.0,"population":"","latitude":-16.416666,"longitude":179.366669},
{"country":"fj","city":"naseile","accentcity":"Naseile","region":2.0,"population":"","latitude":-18.95,"longitude":178.3},
{"country":"fj","city":"nasekula","accentcity":"Nasekula","region":3.0,"population":"","latitude":-16.4333324,"longitude":179.366669},
{"country":"fj","city":"naselai","accentcity":"Naselai","region":1.0,"population":"","latitude":-18.05,"longitude":178.566666},
{"country":"fj","city":"naselesele","accentcity":"Naselesele","region":3.0,"population":"","latitude":-16.7,"longitude":-179.866669},
{"country":"fj","city":"nasengai","accentcity":"Nasengai","region":1.0,"population":"","latitude":-19.15,"longitude":178.083328},
{"country":"fj","city":"naseri lengi","accentcity":"Naseri Lengi","region":5.0,"population":"","latitude":-17.45,"longitude":178.233337},
{"country":"fj","city":"nasesara","accentcity":"Nasesara","region":1.0,"population":"","latitude":-17.75,"longitude":178.75},
{"country":"fj","city":"nasese","accentcity":"Nasese","region":1.0,"population":"","latitude":-18.2666664,"longitude":178.0},
{"country":"fj","city":"nasese","accentcity":"Nasese","region":3.0,"population":"","latitude":-16.55,"longitude":179.78334},
{"country":"fj","city":"naseula","accentcity":"Naseula","region":3.0,"population":"","latitude":-16.4333324,"longitude":179.366669},
{"country":"fj","city":"naseuvou","accentcity":"Naseuvou","region":1.0,"population":"","latitude":-18.0,"longitude":178.21666},
{"country":"fj","city":"naseva","accentcity":"Naseva","region":1.0,"population":"","latitude":-17.8166676,"longitude":178.383331},
{"country":"fj","city":"nasewana","accentcity":"Nasewana","region":3.0,"population":"","latitude":-16.916666,"longitude":178.8},
{"country":"fj","city":"naseyani","accentcity":"Naseyani","region":5.0,"population":"","latitude":-17.5,"longitude":178.0},
{"country":"fj","city":"nasigatoka","accentcity":"Nasigatoka","region":5.0,"population":"","latitude":-18.1333332,"longitude":177.5},
{"country":"fj","city":"nasilai","accentcity":"Nasilai","region":1.0,"population":"","latitude":-18.05,"longitude":178.566666},
{"country":"fj","city":"nasingasinga","accentcity":"Nasingasinga","region":3.0,"population":"","latitude":-16.6333332,"longitude":178.9},
{"country":"fj","city":"na singatoka","accentcity":"Na Singatoka","region":5.0,"population":"","latitude":-18.1333332,"longitude":177.5},
{"country":"fj","city":"nasinu","accentcity":"Nasinu","region":1.0,"population":"","latitude":-17.5666676,"longitude":178.483337},
{"country":"fj","city":"nasinu","accentcity":"Nasinu","region":3.0,"population":"","latitude":-16.7666664,"longitude":179.483337},
{"country":"fj","city":"nasiriti","accentcity":"Nasiriti","region":1.0,"population":"","latitude":-17.7,"longitude":178.083328},
{"country":"fj","city":"nasirotu","accentcity":"Nasirotu","region":1.0,"population":"","latitude":-18.0333328,"longitude":178.25},
{"country":"fj","city":"nasivikoso","accentcity":"Nasivikoso","region":5.0,"population":"","latitude":-17.8166676,"longitude":177.71666},
{"country":"fj","city":"nasoki","accentcity":"Nasoki","region":1.0,"population":"","latitude":-18.6333332,"longitude":179.9},
{"country":"fj","city":"nasoli","accentcity":"Nasoli","region":1.0,"population":"","latitude":-17.8666668,"longitude":178.3},
{"country":"fj","city":"nasolo","accentcity":"Nasolo","region":3.0,"population":"","latitude":-16.95,"longitude":178.766663},
{"country":"fj","city":"nasolo","accentcity":"Nasolo","region":5.0,"population":"","latitude":-17.5666676,"longitude":177.683334},
{"country":"fj","city":"nasomo","accentcity":"Nasomo","region":5.0,"population":"","latitude":-17.5333328,"longitude":177.866669},
{"country":"fj","city":"nasonggo","accentcity":"Nasonggo","region":1.0,"population":"","latitude":-17.666666,"longitude":178.083328},
{"country":"fj","city":"nasovatava","accentcity":"Nasovatava","region":5.0,"population":"","latitude":-18.0166664,"longitude":177.516663},
{"country":"fj","city":"nasovivi","accentcity":"Nasovivi","region":3.0,"population":"","latitude":-16.2166672,"longitude":179.683334},
{"country":"fj","city":"nassaya","accentcity":"Nassaya","region":3.0,"population":"","latitude":-16.4666672,"longitude":179.05},
{"country":"fj","city":"nasukainai","accentcity":"Nasukainai","region":5.0,"population":"","latitude":-17.6166668,"longitude":178.133331},
{"country":"fj","city":"nasukamai","accentcity":"Nasukamai","region":5.0,"population":"","latitude":-17.6166668,"longitude":178.133331},
{"country":"fj","city":"nasuva","accentcity":"Nasuva","region":3.0,"population":"","latitude":-16.55,"longitude":179.183334},
{"country":"fj","city":"natalau","accentcity":"Natalau","region":5.0,"population":"","latitude":-17.7166672,"longitude":177.46666},
{"country":"fj","city":"nataleira","accentcity":"Nataleira","region":1.0,"population":"","latitude":-17.6,"longitude":178.5},
{"country":"fj","city":"natambua government station","accentcity":"Natambua Government Station","region":5.0,"population":"","latitude":-17.6333332,"longitude":177.433334},
{"country":"fj","city":"natambua","accentcity":"Natambua","region":5.0,"population":"","latitude":-17.6333332,"longitude":177.433334},
{"country":"fj","city":"nataria","accentcity":"Nataria","region":3.0,"population":"","latitude":-16.7833328,"longitude":-179.78334},
{"country":"fj","city":"natauloa","accentcity":"Natauloa","region":1.0,"population":"","latitude":-17.7833328,"longitude":179.4},
{"country":"fj","city":"nataveya","accentcity":"Nataveya","region":1.0,"population":"","latitude":-17.833334,"longitude":178.383331},
{"country":"fj","city":"natawa","accentcity":"Natawa","region":5.0,"population":"","latitude":-17.3166676,"longitude":177.15},
{"country":"fj","city":"nate va","accentcity":"Nate va","region":3.0,"population":"","latitude":-16.6,"longitude":179.733337},
{"country":"fj","city":"natewa","accentcity":"Natewa","region":3.0,"population":"","latitude":-16.6,"longitude":179.733337},
{"country":"fj","city":"natewa","accentcity":"Natewa","region":5.0,"population":"","latitude":-18.166666,"longitude":177.666672},
{"country":"fj","city":"sevathi","accentcity":"Sevathi","region":3.0,"population":"","latitude":-16.5,"longitude":179.55},
{"country":"fj","city":"sikituru","accentcity":"Sikituru","region":5.0,"population":"","latitude":-17.8,"longitude":177.4},
{"country":"fj","city":"silana","accentcity":"Silana","region":1.0,"population":"","latitude":-17.583334,"longitude":178.5},
{"country":"fj","city":"singatoka","accentcity":"Singatoka","region":1.0,"population":"","latitude":-18.1,"longitude":178.566666},
{"country":"fj","city":"singatoka","accentcity":"Singatoka","region":5.0,"population":"","latitude":-18.1333332,"longitude":177.5},
{"country":"fj","city":"singatoke","accentcity":"Singatoke","region":5.0,"population":"","latitude":-18.1333332,"longitude":177.5},
{"country":"fj","city":"singuma","accentcity":"Singuma","region":1.0,"population":"","latitude":-17.95,"longitude":179.266663},
{"country":"fj","city":"sinuvaca","accentcity":"Sinuvaca","region":3.0,"population":"","latitude":-17.333334,"longitude":179.433334},
{"country":"fj","city":"sinuvatha","accentcity":"Sinuvatha","region":3.0,"population":"","latitude":-17.333334,"longitude":179.433334},
{"country":"fj","city":"sisila","accentcity":"Sisila","region":1.0,"population":"","latitude":-17.583334,"longitude":178.5},
{"country":"fj","city":"sisili","accentcity":"Sisili","region":5.0,"population":"","latitude":-16.9333324,"longitude":177.4},
{"country":"fj","city":"soa","accentcity":"Soa","region":5.0,"population":"","latitude":-17.65,"longitude":178.366669},
{"country":"fj","city":"soievu","accentcity":"Soievu","region":5.0,"population":"","latitude":-17.7666664,"longitude":177.183334},
{"country":"fj","city":"solevu mission","accentcity":"Solevu Mission","region":3.0,"population":"","latitude":-17.0,"longitude":178.766663},
{"country":"fj","city":"solevu","accentcity":"Solevu","region":3.0,"population":"","latitude":-16.9833336,"longitude":178.766663},
{"country":"fj","city":"solevu","accentcity":"Solevu","region":5.0,"population":"","latitude":-17.7666664,"longitude":177.183334},
{"country":"fj","city":"solianga","accentcity":"Solianga","region":1.0,"population":"","latitude":-18.3833332,"longitude":178.166672},
{"country":"fj","city":"soliyanga","accentcity":"Soliyanga","region":1.0,"population":"","latitude":-18.3833332,"longitude":178.166672},
{"country":"fj","city":"solondamu","accentcity":"Solondamu","region":2.0,"population":"","latitude":-19.0666676,"longitude":178.116669},
{"country":"fj","city":"solo tavine","accentcity":"Solo Tavine","region":2.0,"population":"","latitude":-18.9833336,"longitude":178.433334},
{"country":"fj","city":"solotavui","accentcity":"Solotavui","region":2.0,"population":"","latitude":-18.9833336,"longitude":178.433334},
{"country":"fj","city":"somosomo","accentcity":"Somosomo","region":1.0,"population":"","latitude":-18.0166664,"longitude":179.25},
{"country":"fj","city":"somo somo","accentcity":"Somo Somo","region":1.0,"population":"","latitude":-18.2333336,"longitude":177.816666},
{"country":"fj","city":"somosomo","accentcity":"Somosomo","region":3.0,"population":"","latitude":-16.7666664,"longitude":-179.96666},
{"country":"fj","city":"somosomo","accentcity":"Somosomo","region":5.0,"population":"","latitude":-17.1,"longitude":177.266663},
{"country":"fj","city":"songombiau","accentcity":"Songombiau","region":3.0,"population":"","latitude":-16.2666664,"longitude":179.55},
{"country":"fj","city":"sorokomba","accentcity":"Sorokomba","region":5.0,"population":"","latitude":-17.4833336,"longitude":177.7},
{"country":"fj","city":"soso","accentcity":"Soso","region":2.0,"population":"","latitude":-19.0166664,"longitude":178.333328},
{"country":"fj","city":"soso","accentcity":"Soso","region":5.0,"population":"","latitude":-17.1333332,"longitude":177.233337},
{"country":"fj","city":"sote","accentcity":"Sote","region":1.0,"population":"","latitude":-17.8833332,"longitude":178.5},
{"country":"fj","city":"sueni","accentcity":"Sueni","region":3.0,"population":"","latitude":-16.5666676,"longitude":179.35},
{"country":"fj","city":"suliyanga","accentcity":"Suliyanga","region":1.0,"population":"","latitude":-18.3833332,"longitude":178.166672},
{"country":"fj","city":"sumi","accentcity":"Sumi","region":0.0,"population":"","latitude":-12.5166664,"longitude":177.1},
{"country":"fj","city":"suva city","accentcity":"Suva City","region":1.0,"population":"","latitude":-18.1333332,"longitude":178.416672},
{"country":"fj","city":"suvalailai","accentcity":"Suvalailai","region":1.0,"population":"","latitude":-18.1,"longitude":178.583328},
{"country":"fj","city":"suva","accentcity":"Suva","region":1.0,"population":"","latitude":-18.1333332,"longitude":178.416672},
{"country":"fj","city":"suvaviti","accentcity":"Suvaviti","region":1.0,"population":"","latitude":-18.1,"longitude":178.583328},
{"country":"fj","city":"suvavou","accentcity":"Suvavou","region":1.0,"population":"","latitude":-18.1166668,"longitude":178.416672},
{"country":"fj","city":"tai","accentcity":"Tai","region":1.0,"population":"","latitude":-17.7166672,"longitude":178.766663},
{"country":"fj","city":"talaulia","accentcity":"Talaulia","region":1.0,"population":"","latitude":-19.1166668,"longitude":178.016663},
{"country":"fj","city":"talethake","accentcity":"Talethake","region":5.0,"population":"","latitude":-17.5,"longitude":177.7},
{"country":"fj","city":"tamavua heights","accentcity":"Tamavua Heights","region":1.0,"population":"","latitude":-18.1,"longitude":178.45},
{"country":"fj","city":"tamavua","accentcity":"Tamavua","region":1.0,"population":"","latitude":-18.1166668,"longitude":178.433334},
{"country":"fj","city":"tambalei","accentcity":"Tambalei","region":5.0,"population":"","latitude":-17.75,"longitude":177.766663},
{"country":"fj","city":"tambia","accentcity":"Tambia","region":3.0,"population":"","latitude":-16.45,"longitude":179.25},
{"country":"fj","city":"tambulei","accentcity":"Tambulei","region":5.0,"population":"","latitude":-17.75,"longitude":177.766663},
{"country":"fj","city":"tambungguto","accentcity":"Tambungguto","region":5.0,"population":"","latitude":-17.75,"longitude":177.78334},
{"country":"fj","city":"tambuya","accentcity":"Tambuya","region":1.0,"population":"","latitude":-19.15,"longitude":178.066666},
{"country":"fj","city":"tamura","accentcity":"Tamura","region":0.0,"population":"","latitude":-12.4833336,"longitude":177.066666},
{"country":"fj","city":"tamusua","accentcity":"Tamusua","region":5.0,"population":"","latitude":-16.833334,"longitude":177.45},
{"country":"fj","city":"tangala","accentcity":"Tangala","region":3.0,"population":"","latitude":-16.4666672,"longitude":179.71666},
{"country":"fj","city":"tangangge","accentcity":"Tangangge","region":5.0,"population":"","latitude":-18.2,"longitude":177.666672},
{"country":"fj","city":"tanganghi","accentcity":"Tanganghi","region":5.0,"population":"","latitude":-18.2,"longitude":177.666672},
{"country":"fj","city":"tangangi","accentcity":"Tangangi","region":5.0,"population":"","latitude":-18.2,"longitude":177.666672},
{"country":"fj","city":"tarakua","accentcity":"Tarakua","region":3.0,"population":"","latitude":-17.7166672,"longitude":-179.35},
{"country":"fj","city":"tarokua","accentcity":"Tarokua","region":3.0,"population":"","latitude":-17.7166672,"longitude":-179.35},
{"country":"fj","city":"tarokua village","accentcity":"Tarokua Village","region":3.0,"population":"","latitude":-17.7166672,"longitude":-179.35},
{"country":"fj","city":"tarua","accentcity":"Tarua","region":5.0,"population":"","latitude":-17.45,"longitude":177.866669},
{"country":"fj","city":"tarukua","accentcity":"Tarukua","region":3.0,"population":"","latitude":-17.7166672,"longitude":-179.35},
{"country":"fj","city":"tathelevu","accentcity":"Tathelevu","region":3.0,"population":"","latitude":-16.7666664,"longitude":179.616669},
{"country":"fj","city":"tathilau","accentcity":"Tathilau","region":3.0,"population":"","latitude":-16.2,"longitude":179.583328},
{"country":"fj","city":"tathilevu","accentcity":"Tathilevu","region":3.0,"population":"","latitude":-16.7666664,"longitude":179.616669},
{"country":"fj","city":"tathi","accentcity":"Tathi","region":1.0,"population":"","latitude":-18.1166668,"longitude":178.6},
{"country":"fj","city":"taulevu","accentcity":"Taulevu","region":1.0,"population":"","latitude":-17.833334,"longitude":178.3},
{"country":"fj","city":"nabotini","accentcity":"Nabotini","region":1.0,"population":"","latitude":-18.2333336,"longitude":177.816666},
{"country":"fj","city":"nabukalukiu","accentcity":"Nabukalukiu","region":1.0,"population":"","latitude":-17.9833336,"longitude":178.316666},
{"country":"fj","city":"nabukeleva","accentcity":"Nabukeleva","region":1.0,"population":"","latitude":-18.1333332,"longitude":177.866669},
{"country":"fj","city":"nabuli","accentcity":"Nabuli","region":1.0,"population":"","latitude":-18.1,"longitude":178.583328},
{"country":"fj","city":"nabuna","accentcity":"Nabuna","region":3.0,"population":"","latitude":-17.25,"longitude":179.383331},
{"country":"fj","city":"nacamaki","accentcity":"Nacamaki","region":3.0,"population":"","latitude":-17.25,"longitude":179.433334},
{"country":"fj","city":"nacavanadi","accentcity":"Nacavanadi","region":1.0,"population":"","latitude":-17.9833336,"longitude":179.333328},
{"country":"fj","city":"nadarivatu","accentcity":"Nadarivatu","region":5.0,"population":"","latitude":-17.5666676,"longitude":177.96666},
{"country":"fj","city":"nadaro","accentcity":"Nadaro","region":1.0,"population":"","latitude":-17.95,"longitude":178.566666},
{"country":"fj","city":"nadi","accentcity":"Nadi","region":5.0,"population":"","latitude":-17.8,"longitude":177.416672},
{"country":"fj","city":"naduri","accentcity":"Naduri","region":3.0,"population":"","latitude":-16.45,"longitude":179.15},
{"country":"fj","city":"naevuevu","accentcity":"Naevuevu","region":5.0,"population":"","latitude":-18.15,"longitude":177.45},
{"country":"fj","city":"nagaidamu","accentcity":"Nagaidamu","region":3.0,"population":"","latitude":-17.3166676,"longitude":179.433334},
{"country":"fj","city":"nagumu","accentcity":"Nagumu","region":3.0,"population":"","latitude":-16.4833336,"longitude":179.016663},
{"country":"fj","city":"naiborebore","accentcity":"Naiborebore","region":1.0,"population":"","latitude":-17.9,"longitude":178.566666},
{"country":"fj","city":"naigani","accentcity":"Naigani","region":1.0,"population":"","latitude":-17.7833328,"longitude":179.166672},
{"country":"fj","city":"naiiviivi","accentcity":"Naiiviivi","region":3.0,"population":"","latitude":-16.7666664,"longitude":-179.78334},
{"country":"fj","city":"naikawangga","accentcity":"Naikawangga","region":1.0,"population":"","latitude":-17.9333324,"longitude":178.583328},
{"country":"fj","city":"naikorokoro","accentcity":"Naikorokoro","region":1.0,"population":"","latitude":-17.7,"longitude":178.833328},
{"country":"fj","city":"naikorokoro","accentcity":"Naikorokoro","region":2.0,"population":"","latitude":-18.9833336,"longitude":178.2},
{"country":"fj","city":"naila","accentcity":"Naila","region":1.0,"population":"","latitude":-18.0166664,"longitude":178.583328},
{"country":"fj","city":"nailanga","accentcity":"Nailanga","region":5.0,"population":"","latitude":-17.5166664,"longitude":177.666672},
{"country":"fj","city":"nailawa","accentcity":"Nailawa","region":5.0,"population":"","latitude":-17.4833336,"longitude":178.21666},
{"country":"fj","city":"nailenga","accentcity":"Nailenga","region":1.0,"population":"","latitude":-17.8166676,"longitude":178.55},
{"country":"fj","city":"nailenga","accentcity":"Nailenga","region":5.0,"population":"","latitude":-17.666666,"longitude":178.316666},
{"country":"fj","city":"naililili","accentcity":"Naililili","region":1.0,"population":"","latitude":-18.1,"longitude":178.55},
{"country":"fj","city":"nailou","accentcity":"Nailou","region":3.0,"population":"","latitude":-16.4833336,"longitude":179.9},
{"country":"fj","city":"nailuva","accentcity":"Nailuva","region":5.0,"population":"","latitude":-17.6,"longitude":178.116669},
{"country":"fj","city":"naimalavau","accentcity":"Naimalavau","region":1.0,"population":"","latitude":-18.0666676,"longitude":178.616669},
{"country":"fj","city":"naimasimasi","accentcity":"Naimasimasi","region":1.0,"population":"","latitude":-17.916666,"longitude":178.566666},
{"country":"fj","city":"naimbalembale","accentcity":"Naimbalembale","region":3.0,"population":"","latitude":-16.7666664,"longitude":179.55},
{"country":"fj","city":"naimbalembale","accentcity":"Naimbalembale","region":5.0,"population":"","latitude":-17.15,"longitude":176.916672},
{"country":"fj","city":"naimbita","accentcity":"Naimbita","region":1.0,"population":"","latitude":-17.666666,"longitude":178.3},
{"country":"fj","city":"naimborembore","accentcity":"Naimborembore","region":1.0,"population":"","latitude":-17.9,"longitude":178.566666},
{"country":"fj","city":"nainderi","accentcity":"Nainderi","region":5.0,"population":"","latitude":-18.1333332,"longitude":177.366669},
{"country":"fj","city":"naindi","accentcity":"Naindi","region":3.0,"population":"","latitude":-16.8,"longitude":179.366669},
{"country":"fj","city":"naindiri","accentcity":"Naindiri","region":5.0,"population":"","latitude":-18.1333332,"longitude":177.366669},
{"country":"fj","city":"naingani","accentcity":"Naingani","region":1.0,"population":"","latitude":-17.583334,"longitude":178.683334},
{"country":"fj","city":"naingganggi","accentcity":"Naingganggi","region":3.0,"population":"","latitude":-16.75,"longitude":179.116669},
{"country":"fj","city":"naioti","accentcity":"Naioti","region":2.0,"population":"","latitude":-18.833334,"longitude":178.35},
{"country":"fj","city":"nairukuruku","accentcity":"Nairukuruku","region":1.0,"population":"","latitude":-17.8166676,"longitude":178.28334},
{"country":"fj","city":"naisaumbua","accentcity":"Naisaumbua","region":1.0,"population":"","latitude":-17.9,"longitude":178.583328},
{"country":"fj","city":"naisaumua","accentcity":"Naisaumua","region":1.0,"population":"","latitude":-17.9,"longitude":178.583328},
{"country":"fj","city":"naisausau","accentcity":"Naisausau","region":1.0,"population":"","latitude":-17.95,"longitude":178.6},
{"country":"fj","city":"naiserelangi","accentcity":"Naiserelangi","region":5.0,"population":"","latitude":-17.45,"longitude":178.233337},
{"country":"fj","city":"naisomua","accentcity":"Naisomua","region":1.0,"population":"","latitude":-17.9,"longitude":178.583328},
{"country":"fj","city":"naisonggo","accentcity":"Naisonggo","region":1.0,"population":"","latitude":-17.95,"longitude":178.4},
{"country":"fj","city":"naisongovau","accentcity":"Naisongovau","region":1.0,"population":"","latitude":-18.0166664,"longitude":178.616669},
{"country":"fj","city":"naisumbua","accentcity":"Naisumbua","region":1.0,"population":"","latitude":-17.9,"longitude":178.583328},
{"country":"fj","city":"naitauvoli","accentcity":"Naitauvoli","region":1.0,"population":"","latitude":-17.8166676,"longitude":178.21666},
{"country":"fj","city":"naithambethambe","accentcity":"Naithambethambe","region":1.0,"population":"","latitude":-17.7666664,"longitude":178.766663},
{"country":"fj","city":"naithekoro","accentcity":"Naithekoro","region":3.0,"population":"","latitude":-16.8,"longitude":179.333328},
{"country":"fj","city":"naitonitoni","accentcity":"Naitonitoni","region":1.0,"population":"","latitude":-18.2333336,"longitude":178.166672},
{"country":"fj","city":"naitutu","accentcity":"Naitutu","region":1.0,"population":"","latitude":-17.85,"longitude":178.53334},
{"country":"fj","city":"naivaka","accentcity":"Naivaka","region":3.0,"population":"","latitude":-16.65,"longitude":178.53334},
{"country":"fj","city":"naivakarauniniu","accentcity":"Naivakarauniniu","region":2.0,"population":"","latitude":-18.9666672,"longitude":178.25},
{"country":"fj","city":"naivakareuniniu","accentcity":"Naivakareuniniu","region":2.0,"population":"","latitude":-18.9666672,"longitude":178.25},
{"country":"fj","city":"naivakathau","accentcity":"Naivakathau","region":1.0,"population":"","latitude":-18.0333328,"longitude":178.633331},
{"country":"fj","city":"naivikisara","accentcity":"Naivikisara","region":1.0,"population":"","latitude":-18.1,"longitude":178.583328},
{"country":"fj","city":"naivilathalatha","accentcity":"Naivilathalatha","region":3.0,"population":"","latitude":-16.75,"longitude":179.53334},
{"country":"fj","city":"naivilatha","accentcity":"Naivilatha","region":1.0,"population":"","latitude":-18.1,"longitude":178.616669},
{"country":"fj","city":"naivindamu","accentcity":"Naivindamu","region":0.0,"population":"","latitude":-19.1166668,"longitude":-178.6},
{"country":"fj","city":"na ivisaro","accentcity":"Na Ivisaro","region":1.0,"population":"","latitude":-17.7833328,"longitude":178.583328},
{"country":"fj","city":"naiviteitei","accentcity":"Naiviteitei","region":1.0,"population":"","latitude":-17.7166672,"longitude":178.766663},
{"country":"fj","city":"navata","accentcity":"Navata","region":3.0,"population":"","latitude":-16.4833336,"longitude":179.016663},
{"country":"fj","city":"navatu","accentcity":"Navatu","region":1.0,"population":"","latitude":-18.6,"longitude":179.9},
{"country":"fj","city":"navatu","accentcity":"Navatu","region":3.0,"population":"","latitude":-16.9333324,"longitude":179.016663},
{"country":"fj","city":"navatu","accentcity":"Navatu","region":5.0,"population":"","latitude":-17.3666668,"longitude":178.1},
{"country":"fj","city":"navatuvula","accentcity":"Navatuvula","region":1.0,"population":"","latitude":-18.0333328,"longitude":178.433334},
{"country":"fj","city":"navatuyamba","accentcity":"Navatuyamba","region":1.0,"population":"","latitude":-18.0666676,"longitude":178.566666},
{"country":"fj","city":"navaundra","accentcity":"Navaundra","region":1.0,"population":"","latitude":-18.083334,"longitude":178.05},
{"country":"fj","city":"navave","accentcity":"Navave","region":3.0,"population":"","latitude":-17.0,"longitude":178.71666},
{"country":"fj","city":"naveimavu","accentcity":"Naveimavu","region":1.0,"population":"","latitude":-17.95,"longitude":178.316666},
{"country":"fj","city":"naveindrendre","accentcity":"Naveindrendre","region":3.0,"population":"","latitude":-16.2166672,"longitude":179.616669},
{"country":"fj","city":"naveithovatu","accentcity":"Naveithovatu","region":1.0,"population":"","latitude":-17.7333336,"longitude":178.383331},
{"country":"fj","city":"navetau","accentcity":"Navetau","region":3.0,"population":"","latitude":-16.4833336,"longitude":179.683334},
{"country":"fj","city":"naveyango","accentcity":"Naveyango","region":5.0,"population":"","latitude":-17.9666672,"longitude":177.65},
{"country":"fj","city":"navidamou","accentcity":"Navidamou","region":3.0,"population":"","latitude":-16.5166664,"longitude":178.916672},
{"country":"fj","city":"navidamu","accentcity":"Navidamu","region":3.0,"population":"","latitude":-16.5166664,"longitude":178.916672},
{"country":"fj","city":"navilawa","accentcity":"Navilawa","region":5.0,"population":"","latitude":-17.6833324,"longitude":177.583328},
{"country":"fj","city":"navindamou","accentcity":"Navindamou","region":3.0,"population":"","latitude":-16.5166664,"longitude":178.916672},
{"country":"fj","city":"navindamu","accentcity":"Navindamu","region":0.0,"population":"","latitude":-19.1166668,"longitude":-178.6},
{"country":"fj","city":"navindamu","accentcity":"Navindamu","region":3.0,"population":"","latitude":-16.5166664,"longitude":178.916672},
{"country":"fj","city":"navindom","accentcity":"Navindom","region":0.0,"population":"","latitude":-19.1166668,"longitude":-178.6},
{"country":"fj","city":"navinggiri","accentcity":"Navinggiri","region":3.0,"population":"","latitude":-16.666666,"longitude":178.6},
{"country":"fj","city":"navitilevu","accentcity":"Navitilevu","region":5.0,"population":"","latitude":-17.583334,"longitude":178.233337},
{"country":"fj","city":"navivanga","accentcity":"Navivanga","region":5.0,"population":"","latitude":-17.583334,"longitude":177.5},
{"country":"fj","city":"naviyango","accentcity":"Naviyango","region":5.0,"population":"","latitude":-17.583334,"longitude":177.5},
{"country":"fj","city":"navolau","accentcity":"Navolau","region":1.0,"population":"","latitude":-17.8666668,"longitude":178.4},
{"country":"fj","city":"navolau","accentcity":"Navolau","region":5.0,"population":"","latitude":-17.3833332,"longitude":178.25},
{"country":"fj","city":"navora","accentcity":"Navora","region":2.0,"population":"","latitude":-19.0166664,"longitude":178.316666},
{"country":"fj","city":"navotua","accentcity":"Navotua","region":5.0,"population":"","latitude":-16.8666668,"longitude":177.45},
{"country":"fj","city":"navua","accentcity":"Navua","region":1.0,"population":"","latitude":-18.2166672,"longitude":178.166672},
{"country":"fj","city":"navuandra","accentcity":"Navuandra","region":1.0,"population":"","latitude":-18.083334,"longitude":178.05},
{"country":"fj","city":"navuatu","accentcity":"Navuatu","region":2.0,"population":"","latitude":-19.0166664,"longitude":178.166672},
{"country":"fj","city":"navuavuni","accentcity":"Navuavuni","region":5.0,"population":"","latitude":-17.3833332,"longitude":178.1},
{"country":"fj","city":"navuevu","accentcity":"Navuevu","region":5.0,"population":"","latitude":-18.15,"longitude":177.45},
{"country":"fj","city":"navukailagi","accentcity":"Navukailagi","region":1.0,"population":"","latitude":-17.95,"longitude":179.266663},
{"country":"fj","city":"navukailangi","accentcity":"Navukailangi","region":1.0,"population":"","latitude":-17.95,"longitude":179.266663},
{"country":"fj","city":"navukembuli","accentcity":"Navukembuli","region":3.0,"population":"","latitude":-16.2833328,"longitude":179.6},
{"country":"fj","city":"navukimbuli","accentcity":"Navukimbuli","region":3.0,"population":"","latitude":-16.2833328,"longitude":179.6},
{"country":"fj","city":"navuloa","accentcity":"Navuloa","region":1.0,"population":"","latitude":-17.7,"longitude":178.766663},
{"country":"fj","city":"navunievu","accentcity":"Navunievu","region":3.0,"population":"","latitude":-16.8,"longitude":178.55},
{"country":"fj","city":"navuniivi","accentcity":"Navuniivi","region":1.0,"population":"","latitude":-18.0333328,"longitude":178.133331},
{"country":"fj","city":"navuniivi","accentcity":"Navuniivi","region":5.0,"population":"","latitude":-17.45,"longitude":178.266663},
{"country":"fj","city":"navunikambi","accentcity":"Navunikambi","region":1.0,"population":"","latitude":-18.05,"longitude":178.066666},
{"country":"fj","city":"navunimono","accentcity":"Navunimono","region":1.0,"population":"","latitude":-17.8666668,"longitude":178.583328},
{"country":"fj","city":"navunisole","accentcity":"Navunisole","region":1.0,"population":"","latitude":-17.8166676,"longitude":178.53334},
{"country":"fj","city":"navunitogoloa","accentcity":"Navunitogoloa","region":5.0,"population":"","latitude":-17.3666668,"longitude":178.066666},
{"country":"fj","city":"navuniyaro","accentcity":"Navuniyaro","region":1.0,"population":"","latitude":-17.7833328,"longitude":178.366669},
{"country":"fj","city":"navuniyasi","accentcity":"Navuniyasi","region":1.0,"population":"","latitude":-17.8,"longitude":178.266663},
{"country":"fj","city":"navuniyevo","accentcity":"Navuniyevo","region":3.0,"population":"","latitude":-16.8,"longitude":178.55},
{"country":"fj","city":"navurevure","accentcity":"Navurevure","region":1.0,"population":"","latitude":-17.9833336,"longitude":178.3},
{"country":"fj","city":"navuruvuru","accentcity":"Navuruvuru","region":1.0,"population":"","latitude":-17.8666668,"longitude":178.616669},
{"country":"fj","city":"navuso","accentcity":"Navuso","region":1.0,"population":"","latitude":-18.0166664,"longitude":178.516663},
{"country":"fj","city":"navuti","accentcity":"Navuti","region":1.0,"population":"","latitude":-17.75,"longitude":178.75},
{"country":"fj","city":"navutoka","accentcity":"Navutoka","region":5.0,"population":"","latitude":-17.55,"longitude":178.4},
{"country":"fj","city":"navuto","accentcity":"Navuto","region":1.0,"population":"","latitude":-17.9,"longitude":178.383331},
{"country":"fj","city":"navutulevu","accentcity":"Navutulevu","region":1.0,"population":"","latitude":-18.2333336,"longitude":177.8},
{"country":"fj","city":"navutu","accentcity":"Navutu","region":5.0,"population":"","latitude":-18.0166664,"longitude":177.333328},
{"country":"fj","city":"nawailevu","accentcity":"Nawailevu","region":3.0,"population":"","latitude":-16.7333336,"longitude":178.683334},
{"country":"fj","city":"nawai","accentcity":"Nawai","region":3.0,"population":"","latitude":-16.7,"longitude":179.883331},
{"country":"fj","city":"na wai nde","accentcity":"Na wai nde","region":3.0,"population":"","latitude":-16.9833336,"longitude":178.78334},
{"country":"fj","city":"nawaindo","accentcity":"Nawaindo","region":3.0,"population":"","latitude":-16.9833336,"longitude":178.78334},
{"country":"fj","city":"nawairambe","accentcity":"Nawairambe","region":5.0,"population":"","latitude":-17.95,"longitude":177.8},
{"country":"fj","city":"nawaka","accentcity":"Nawaka","region":5.0,"population":"","latitude":-17.8166676,"longitude":177.433334},
{"country":"fj","city":"nawala","accentcity":"Nawala","region":1.0,"population":"","latitude":-17.7833328,"longitude":178.25},
{"country":"fj","city":"nawamangimangi","accentcity":"Nawamangimangi","region":5.0,"population":"","latitude":-18.1,"longitude":177.55},
{"country":"fj","city":"taunovo","accentcity":"Taunovo","region":5.0,"population":"","latitude":-18.5166664,"longitude":177.65},
{"country":"fj","city":"tau","accentcity":"Tau","region":5.0,"population":"","latitude":-17.9666672,"longitude":177.28334},
{"country":"fj","city":"tavea","accentcity":"Tavea","region":3.0,"population":"","latitude":-16.6166668,"longitude":178.733337},
{"country":"fj","city":"tavia","accentcity":"Tavia","region":1.0,"population":"","latitude":-17.6333332,"longitude":178.766663},
{"country":"fj","city":"taviya","accentcity":"Taviya","region":1.0,"population":"","latitude":-17.6333332,"longitude":178.766663},
{"country":"fj","city":"tavua","accentcity":"Tavua","region":3.0,"population":"","latitude":-17.3,"longitude":179.366669},
{"country":"fj","city":"tavua","accentcity":"Tavua","region":5.0,"population":"","latitude":-17.45,"longitude":177.866669},
{"country":"fj","city":"tavuka","accentcity":"Tavuka","region":2.0,"population":"","latitude":-19.083334,"longitude":178.116669},
{"country":"fj","city":"tavuki","accentcity":"Tavuki","region":2.0,"population":"","latitude":-19.083334,"longitude":178.116669},
{"country":"fj","city":"tavuki","accentcity":"Tavuki","region":3.0,"population":"","latitude":-16.8,"longitude":180.0},
{"country":"fj","city":"tavulomo","accentcity":"Tavulomo","region":3.0,"population":"","latitude":-16.8833332,"longitude":178.65},
{"country":"fj","city":"tawake","accentcity":"Tawake","region":3.0,"population":"","latitude":-16.25,"longitude":179.866669},
{"country":"fj","city":"tawaki","accentcity":"Tawaki","region":3.0,"population":"","latitude":-16.25,"longitude":179.866669},
{"country":"fj","city":"tawapa","accentcity":"Tawapa","region":1.0,"population":"","latitude":-19.1,"longitude":178.03334},
{"country":"fj","city":"tawatawandi","accentcity":"Tawatawandi","region":5.0,"population":"","latitude":-17.9833336,"longitude":177.616669},
{"country":"fj","city":"tawava","accentcity":"Tawava","region":1.0,"population":"","latitude":-19.1,"longitude":178.03334},
{"country":"fj","city":"tethi","accentcity":"Tethi","region":5.0,"population":"","latitude":-16.8,"longitude":177.516663},
{"country":"fj","city":"tevai","accentcity":"Tevai","region":2.0,"population":"","latitude":-19.1333332,"longitude":178.116669},
{"country":"fj","city":"thakova","accentcity":"Thakova","region":1.0,"population":"","latitude":-18.6333332,"longitude":179.883331},
{"country":"fj","city":"thalia","accentcity":"Thalia","region":1.0,"population":"","latitude":-18.2166672,"longitude":178.166672},
{"country":"fj","city":"thalira","accentcity":"Thalira","region":1.0,"population":"","latitude":-19.15,"longitude":177.983337},
{"country":"fj","city":"thaumbati","accentcity":"Thaumbati","region":1.0,"population":"","latitude":-18.1,"longitude":178.483337},
{"country":"fj","city":"thautata","accentcity":"Thautata","region":1.0,"population":"","latitude":-18.0,"longitude":178.633331},
{"country":"fj","city":"thava levu","accentcity":"Thava Levu","region":3.0,"population":"","latitude":-17.3,"longitude":179.366669},
{"country":"fj","city":"thavanga","accentcity":"Thavanga","region":3.0,"population":"","latitude":-17.0,"longitude":178.78334},
{"country":"fj","city":"thava","accentcity":"Thava","region":3.0,"population":"","latitude":-17.3,"longitude":179.366669},
{"country":"fj","city":"thavonga","accentcity":"Thavonga","region":3.0,"population":"","latitude":-17.0,"longitude":178.78334},
{"country":"fj","city":"thavu","accentcity":"Thavu","region":3.0,"population":"","latitude":-17.3,"longitude":179.366669},
{"country":"fj","city":"thawandevo","accentcity":"Thawandevo","region":3.0,"population":"","latitude":-16.2166672,"longitude":179.666672},
{"country":"fj","city":"thawara","accentcity":"Thawara","region":3.0,"population":"","latitude":-16.2333336,"longitude":179.85},
{"country":"fj","city":"thawaro","accentcity":"Thawaro","region":3.0,"population":"","latitude":-16.2333336,"longitude":179.85},
{"country":"fj","city":"the domain","accentcity":"The Domain","region":1.0,"population":"","latitude":-18.15,"longitude":178.433334},
{"country":"fj","city":"thevai","accentcity":"Thevai","region":2.0,"population":"","latitude":-19.1333332,"longitude":178.116669},
{"country":"fj","city":"thikombia","accentcity":"Thikombia","region":3.0,"population":"","latitude":-17.2833328,"longitude":-178.78334},
{"country":"fj","city":"tholoisuva","accentcity":"Tholoisuva","region":1.0,"population":"","latitude":-18.05,"longitude":178.45},
{"country":"fj","city":"thongea","accentcity":"Thongea","region":3.0,"population":"","latitude":-16.8166676,"longitude":178.9},
{"country":"fj","city":"thulanuku","accentcity":"Thulanuku","region":1.0,"population":"","latitude":-18.2666664,"longitude":177.983337},
{"country":"fj","city":"thuvu","accentcity":"Thuvu","region":5.0,"population":"","latitude":-17.7,"longitude":177.833328},
{"country":"fj","city":"tia","accentcity":"Tia","region":0.0,"population":"","latitude":-12.5,"longitude":177.05},
{"country":"fj","city":"tilivalevu","accentcity":"Tilivalevu","region":5.0,"population":"","latitude":-18.083334,"longitude":177.483337},
{"country":"fj","city":"tiliva","accentcity":"Tiliva","region":2.0,"population":"","latitude":-18.9666672,"longitude":178.45},
{"country":"fj","city":"tiliva","accentcity":"Tiliva","region":3.0,"population":"","latitude":-16.8,"longitude":178.616669},
{"country":"fj","city":"tioma","accentcity":"Tioma","region":2.0,"population":"","latitude":-19.0333328,"longitude":178.35},
{"country":"fj","city":"tokala","accentcity":"Tokala","region":1.0,"population":"","latitude":-19.1166668,"longitude":179.78334},
{"country":"fj","city":"tokalau","accentcity":"Tokalau","region":0.0,"population":"","latitude":-18.9333324,"longitude":-178.96666},
{"country":"fj","city":"tokalau","accentcity":"Tokalau","region":3.0,"population":"","latitude":-17.7333336,"longitude":-179.3},
{"country":"fj","city":"tokalou","accentcity":"Tokalou","region":1.0,"population":"","latitude":-19.1166668,"longitude":179.78334},
{"country":"fj","city":"toki","accentcity":"Toki","region":1.0,"population":"","latitude":-17.65,"longitude":178.833328},
{"country":"fj","city":"tokolau","accentcity":"Tokolau","region":3.0,"population":"","latitude":-17.7333336,"longitude":-179.3},
{"country":"fj","city":"toko","accentcity":"Toko","region":5.0,"population":"","latitude":-17.7833328,"longitude":177.6},
{"country":"fj","city":"tokou","accentcity":"Tokou","region":1.0,"population":"","latitude":-17.7166672,"longitude":178.833328},
{"country":"fj","city":"toliera","accentcity":"Toliera","region":1.0,"population":"","latitude":-17.6,"longitude":178.5},
{"country":"fj","city":"tombu","accentcity":"Tombu","region":5.0,"population":"","latitude":-17.6166668,"longitude":178.266663},
{"country":"fj","city":"tonga","accentcity":"Tonga","region":5.0,"population":"","latitude":-17.9833336,"longitude":177.6},
{"country":"fj","city":"tongaviri","accentcity":"Tongaviri","region":5.0,"population":"","latitude":-17.4,"longitude":178.016663},
{"country":"fj","city":"tonge","accentcity":"Tonge","region":5.0,"population":"","latitude":-17.6333332,"longitude":177.75},
{"country":"fj","city":"tongo","accentcity":"Tongo","region":3.0,"population":"","latitude":-16.7666664,"longitude":-179.75},
{"country":"fj","city":"tongovere","accentcity":"Tongovere","region":5.0,"population":"","latitude":-18.1,"longitude":177.416672},
{"country":"fj","city":"tongowere","accentcity":"Tongowere","region":5.0,"population":"","latitude":-17.4,"longitude":178.016663},
{"country":"fj","city":"tonuva","accentcity":"Tonuva","region":5.0,"population":"","latitude":-17.9666672,"longitude":177.71666},
{"country":"fj","city":"tonuve","accentcity":"Tonuve","region":5.0,"population":"","latitude":-17.9666672,"longitude":177.71666},
{"country":"fj","city":"toorak","accentcity":"Toorak","region":1.0,"population":"","latitude":-18.1333332,"longitude":178.433334},
{"country":"fj","city":"tore","accentcity":"Tore","region":5.0,"population":"","latitude":-17.95,"longitude":177.566666},
{"country":"fj","city":"totongo","accentcity":"Totongo","region":3.0,"population":"","latitude":-16.7666664,"longitude":-179.75},
{"country":"fj","city":"mbouwangga","accentcity":"Mbouwangga","region":5.0,"population":"","latitude":-18.5666676,"longitude":177.65},
{"country":"fj","city":"mbualu","accentcity":"Mbualu","region":2.0,"population":"","latitude":-18.8833332,"longitude":178.46666},
{"country":"fj","city":"mbua","accentcity":"Mbua","region":3.0,"population":"","latitude":-16.4666672,"longitude":179.083328},
{"country":"fj","city":"mbuinduna","accentcity":"Mbuinduna","region":1.0,"population":"","latitude":-18.0,"longitude":178.55},
{"country":"fj","city":"mbukama","accentcity":"Mbukama","region":5.0,"population":"","latitude":-16.7666664,"longitude":177.55},
{"country":"fj","city":"mbuke levuira","accentcity":"Mbuke Levuira","region":1.0,"population":"","latitude":-19.1333332,"longitude":177.96666},
{"country":"fj","city":"mbukuya","accentcity":"Mbukuya","region":5.0,"population":"","latitude":-17.7833328,"longitude":177.766663},
{"country":"fj","city":"mbulia","accentcity":"Mbulia","region":2.0,"population":"","latitude":-18.85,"longitude":178.53334},
{"country":"fj","city":"mbulileka","accentcity":"Mbulileka","region":3.0,"population":"","latitude":-16.45,"longitude":179.433334},
{"country":"fj","city":"mbuliya","accentcity":"Mbuliya","region":2.0,"population":"","latitude":-18.85,"longitude":178.53334},
{"country":"fj","city":"mbulumbulu","accentcity":"Mbulumbulu","region":3.0,"population":"","latitude":-16.3666668,"longitude":179.45},
{"country":"fj","city":"mbuma","accentcity":"Mbuma","region":3.0,"population":"","latitude":-16.8166676,"longitude":-179.866669},
{"country":"fj","city":"mbunduna","accentcity":"Mbunduna","region":1.0,"population":"","latitude":-18.0,"longitude":178.55},
{"country":"fj","city":"mburelevu","accentcity":"Mburelevu","region":1.0,"population":"","latitude":-17.666666,"longitude":178.583328},
{"country":"fj","city":"mburelevu","accentcity":"Mburelevu","region":5.0,"population":"","latitude":-17.55,"longitude":178.15},
{"country":"fj","city":"mburembasanga","accentcity":"Mburembasanga","region":1.0,"population":"","latitude":-18.083334,"longitude":178.566666},
{"country":"fj","city":"mburembau","accentcity":"Mburembau","region":5.0,"population":"","latitude":-17.5666676,"longitude":178.45},
{"country":"fj","city":"mburenitu","accentcity":"Mburenitu","region":5.0,"population":"","latitude":-17.5333328,"longitude":178.233337},
{"country":"fj","city":"mburenivalu","accentcity":"Mburenivalu","region":1.0,"population":"","latitude":-17.7,"longitude":178.566666},
{"country":"fj","city":"mburerua","accentcity":"Mburerua","region":1.0,"population":"","latitude":-17.7666664,"longitude":178.53334},
{"country":"fj","city":"mburetu","accentcity":"Mburetu","region":1.0,"population":"","latitude":-18.05,"longitude":178.616669},
{"country":"fj","city":"mbusa","accentcity":"Mbusa","region":1.0,"population":"","latitude":-19.083334,"longitude":178.083328},
{"country":"fj","city":"mbusa","accentcity":"Mbusa","region":5.0,"population":"","latitude":-18.2,"longitude":177.7},
{"country":"fj","city":"mbuthalevu","accentcity":"Mbuthalevu","region":3.0,"population":"","latitude":-16.7166672,"longitude":179.45},
{"country":"fj","city":"mbutha","accentcity":"Mbutha","region":1.0,"population":"","latitude":-17.6333332,"longitude":178.816666},
{"country":"fj","city":"mbutha","accentcity":"Mbutha","region":3.0,"population":"","latitude":-16.65,"longitude":179.85},
{"country":"fj","city":"mea","accentcity":"Mea","region":0.0,"population":"","latitude":-12.4833336,"longitude":177.066666},
{"country":"fj","city":"melimeli","accentcity":"Melimeli","region":1.0,"population":"","latitude":-18.2,"longitude":178.2},
{"country":"fj","city":"moala","accentcity":"Moala","region":5.0,"population":"","latitude":-17.8166676,"longitude":177.383331},
{"country":"fj","city":"mofmanu","accentcity":"Mofmanu","region":0.0,"population":"","latitude":-12.5166664,"longitude":177.03334},
{"country":"fj","city":"mokani","accentcity":"Mokani","region":1.0,"population":"","latitude":-18.0166664,"longitude":178.616669},
{"country":"fj","city":"mokoisa","accentcity":"Mokoisa","region":2.0,"population":"","latitude":-19.1,"longitude":178.166672},
{"country":"fj","city":"momi","accentcity":"Momi","region":5.0,"population":"","latitude":-17.916666,"longitude":177.28334},
{"country":"fj","city":"mongumongua","accentcity":"Mongumongua","region":1.0,"population":"","latitude":-18.25,"longitude":177.833328},
{"country":"fj","city":"monothaki","accentcity":"Monothaki","region":0.0,"population":"","latitude":-19.15,"longitude":-178.583328},
{"country":"fj","city":"monu ku","accentcity":"Monu Ku","region":1.0,"population":"","latitude":-19.15,"longitude":178.05},
{"country":"fj","city":"motomoto","accentcity":"Motomoto","region":5.0,"population":"","latitude":-17.8,"longitude":177.416672},
{"country":"fj","city":"motusa","accentcity":"Motusa","region":0.0,"population":"","latitude":-12.5166664,"longitude":177.03334},
{"country":"fj","city":"mouta","accentcity":"Mouta","region":3.0,"population":"","latitude":-16.2833328,"longitude":179.55},
{"country":"fj","city":"muaira","accentcity":"Muaira","region":5.0,"population":"","latitude":-17.1333332,"longitude":177.25},
{"country":"fj","city":"muaivuso","accentcity":"Muaivuso","region":1.0,"population":"","latitude":-18.1333332,"longitude":178.366669},
{"country":"fj","city":"mualevu","accentcity":"Mualevu","region":3.0,"population":"","latitude":-17.2333336,"longitude":-178.933334},
{"country":"fj","city":"mua","accentcity":"Mua","region":1.0,"population":"","latitude":-17.8,"longitude":179.15},
{"country":"fj","city":"mua","accentcity":"Mua","region":3.0,"population":"","latitude":-16.7166672,"longitude":179.316666},
{"country":"fj","city":"muamua","accentcity":"Muamua","region":1.0,"population":"","latitude":-17.9333324,"longitude":178.433334},
{"country":"fj","city":"muamua","accentcity":"Muamua","region":3.0,"population":"","latitude":-17.2333336,"longitude":-178.96666},
{"country":"fj","city":"muana-i-ra","accentcity":"Muana-i-Ra","region":0.0,"population":"","latitude":-19.15,"longitude":-178.583328},
{"country":"fj","city":"muanaira","accentcity":"Muanaira","region":1.0,"population":"","latitude":-18.0666676,"longitude":178.666672},
{"country":"fj","city":"muana-i-thake","accentcity":"Muana-i-Thake","region":0.0,"population":"","latitude":-19.15,"longitude":-178.583328},
{"country":"fj","city":"muanaithake","accentcity":"Muanaithake","region":1.0,"population":"","latitude":-18.1333332,"longitude":178.55},
{"country":"fj","city":"muana","accentcity":"Muana","region":1.0,"population":"","latitude":-18.05,"longitude":178.53334},
{"country":"fj","city":"muana","accentcity":"Muana","region":3.0,"population":"","latitude":-16.5166664,"longitude":179.816666},
{"country":"fj","city":"muanikau","accentcity":"Muanikau","region":1.0,"population":"","latitude":-18.15,"longitude":178.45},
{"country":"fj","city":"muani","accentcity":"Muani","region":2.0,"population":"","latitude":-19.15,"longitude":178.15},
{"country":"fj","city":"muaninuku","accentcity":"Muaninuku","region":1.0,"population":"","latitude":-19.15,"longitude":178.05},
{"country":"fj","city":"muaniseva","accentcity":"Muaniseva","region":3.0,"population":"","latitude":-16.5666676,"longitude":179.766663},
{"country":"fj","city":"muanisolo","accentcity":"Muanisolo","region":2.0,"population":"","latitude":-19.0166664,"longitude":178.266663},
{"country":"fj","city":"muanivatu","accentcity":"Muanivatu","region":1.0,"population":"","latitude":-18.15,"longitude":178.45},
{"country":"fj","city":"muanivuso","accentcity":"Muanivuso","region":1.0,"population":"","latitude":-18.1333332,"longitude":178.366669},
{"country":"fj","city":"mudu","accentcity":"Mudu","region":3.0,"population":"","latitude":-17.3833332,"longitude":179.416672},
{"country":"fj","city":"mundu","accentcity":"Mundu","region":3.0,"population":"","latitude":-17.3833332,"longitude":179.416672},
{"country":"fj","city":"muneran","accentcity":"Muneran","region":0.0,"population":"","latitude":-19.15,"longitude":-178.583328},
{"country":"fj","city":"murimuri","accentcity":"Murimuri","region":1.0,"population":"","latitude":-19.1333332,"longitude":179.75},
{"country":"fj","city":"muundu","accentcity":"Muundu","region":3.0,"population":"","latitude":-17.3833332,"longitude":179.416672},
{"country":"fj","city":"nathamaki","accentcity":"Nathamaki","region":3.0,"population":"","latitude":-17.25,"longitude":179.433334},
{"country":"fj","city":"nathanga","accentcity":"Nathanga","region":3.0,"population":"","latitude":-17.3166676,"longitude":179.366669},
{"country":"fj","city":"nathaurokovi","accentcity":"Nathaurokovi","region":3.0,"population":"","latitude":-16.5666676,"longitude":179.166672},
{"country":"fj","city":"nathavanandi","accentcity":"Nathavanandi","region":1.0,"population":"","latitude":-17.9833336,"longitude":179.333328},
{"country":"fj","city":"nathavanandi","accentcity":"Nathavanandi","region":3.0,"population":"","latitude":-16.8,"longitude":179.46666},
{"country":"fj","city":"nathekoro","accentcity":"Nathekoro","region":3.0,"population":"","latitude":-16.8,"longitude":179.333328},
{"country":"fj","city":"natheva","accentcity":"Natheva","region":1.0,"population":"","latitude":-18.416666,"longitude":178.116669},
{"country":"fj","city":"natheva","accentcity":"Natheva","region":3.0,"population":"","latitude":-17.7666664,"longitude":-179.316666},
{"country":"fj","city":"nathokaika","accentcity":"Nathokaika","region":1.0,"population":"","latitude":-17.9666672,"longitude":178.433334},
{"country":"fj","city":"nathokeka","accentcity":"Nathokeka","region":1.0,"population":"","latitude":-17.9666672,"longitude":178.433334},
{"country":"fj","city":"nathokula","accentcity":"Nathokula","region":1.0,"population":"","latitude":-18.05,"longitude":178.133331},
{"country":"fj","city":"nathokulati","accentcity":"Nathokulati","region":3.0,"population":"","latitude":-16.2666664,"longitude":179.55},
{"country":"fj","city":"nathomaki","accentcity":"Nathomaki","region":3.0,"population":"","latitude":-17.25,"longitude":179.433334},
{"country":"fj","city":"nathombo","accentcity":"Nathombo","region":1.0,"population":"","latitude":-17.7166672,"longitude":178.8},
{"country":"fj","city":"nathomoto","accentcity":"Nathomoto","region":2.0,"population":"","latitude":-19.05,"longitude":178.35},
{"country":"fj","city":"nathovu","accentcity":"Nathovu","region":1.0,"population":"","latitude":-18.1333332,"longitude":178.433334},
{"country":"fj","city":"nathula","accentcity":"Nathula","region":3.0,"population":"","latitude":-16.416666,"longitude":179.683334},
{"country":"fj","city":"nathula","accentcity":"Nathula","region":5.0,"population":"","latitude":-16.9,"longitude":177.4},
{"country":"fj","city":"nathuru","accentcity":"Nathuru","region":1.0,"population":"","latitude":-18.1,"longitude":178.6},
{"country":"fj","city":"natia","accentcity":"Natia","region":5.0,"population":"","latitude":-17.1333332,"longitude":176.933334},
{"country":"fj","city":"nativi","accentcity":"Nativi","region":5.0,"population":"","latitude":-17.5,"longitude":178.2},
{"country":"fj","city":"natoaika","accentcity":"Natoaika","region":1.0,"population":"","latitude":-17.95,"longitude":178.45},
{"country":"fj","city":"natokalau","accentcity":"Natokalau","region":1.0,"population":"","latitude":-17.7333336,"longitude":178.816666},
{"country":"fj","city":"natokalau","accentcity":"Natokalau","region":3.0,"population":"","latitude":-16.9,"longitude":179.066666},
{"country":"fj","city":"natokalou","accentcity":"Natokalou","region":1.0,"population":"","latitude":-17.7333336,"longitude":178.816666},
{"country":"fj","city":"natongandravo","accentcity":"Natongandravo","region":1.0,"population":"","latitude":-18.0666676,"longitude":178.583328},
{"country":"fj","city":"natongandravu","accentcity":"Natongandravu","region":1.0,"population":"","latitude":-18.0666676,"longitude":178.583328},
{"country":"fj","city":"natua","accentcity":"Natua","region":3.0,"population":"","latitude":-16.5333328,"longitude":179.133331},
{"country":"fj","city":"natuatuacoko","accentcity":"Natuatuacoko","region":5.0,"population":"","latitude":-17.8833332,"longitude":177.78334},
{"country":"fj","city":"natuatuathoko","accentcity":"Natuatuathoko","region":5.0,"population":"","latitude":-17.8833332,"longitude":177.78334},
{"country":"fj","city":"natuma","accentcity":"Natuma","region":2.0,"population":"","latitude":-19.083334,"longitude":178.116669},
{"country":"fj","city":"natumua","accentcity":"Natumua","region":2.0,"population":"","latitude":-19.083334,"longitude":178.116669},
{"country":"fj","city":"natunuka","accentcity":"Natunuka","region":5.0,"population":"","latitude":-17.45,"longitude":177.75},
{"country":"fj","city":"natunuku","accentcity":"Natunuku","region":5.0,"population":"","latitude":-17.45,"longitude":177.75},
{"country":"fj","city":"naturu","accentcity":"Naturu","region":2.0,"population":"","latitude":-18.9,"longitude":178.46666},
{"country":"fj","city":"naturu","accentcity":"Naturu","region":3.0,"population":"","latitude":-16.7333336,"longitude":179.15},
{"country":"fj","city":"na tuta tuta","accentcity":"Na tuta tuta","region":5.0,"population":"","latitude":-17.4833336,"longitude":177.683334},
{"country":"fj","city":"natutu","accentcity":"Natutu","region":5.0,"population":"","latitude":-17.4833336,"longitude":177.683334},
{"country":"fj","city":"natuva","accentcity":"Natuva","region":1.0,"population":"","latitude":-17.85,"longitude":178.4},
{"country":"fj","city":"na tuva","accentcity":"Na Tuva","region":3.0,"population":"","latitude":-16.7333336,"longitude":179.15},
{"country":"fj","city":"natuvu","accentcity":"Natuvu","region":3.0,"population":"","latitude":-16.4333324,"longitude":179.75},
{"country":"fj","city":"naua","accentcity":"Naua","region":3.0,"population":"","latitude":-16.2333336,"longitude":179.65},
{"country":"fj","city":"nauidamu","accentcity":"Nauidamu","region":3.0,"population":"","latitude":-16.5166664,"longitude":178.916672},
{"country":"fj","city":"naulu","accentcity":"Naulu","region":1.0,"population":"","latitude":-18.0666676,"longitude":178.53334},
{"country":"fj","city":"nauluvatu","accentcity":"Nauluvatu","region":1.0,"population":"","latitude":-17.95,"longitude":178.316666},
{"country":"fj","city":"nauouo","accentcity":"Nauouo","region":1.0,"population":"","latitude":-17.6333332,"longitude":178.816666},
{"country":"fj","city":"naurea","accentcity":"Naurea","region":5.0,"population":"","latitude":-17.6,"longitude":178.133331},
{"country":"fj","city":"nauria","accentcity":"Nauria","region":5.0,"population":"","latitude":-17.6,"longitude":178.133331},
{"country":"fj","city":"nausori","accentcity":"Nausori","region":1.0,"population":"","latitude":-18.0333328,"longitude":178.53334},
{"country":"fj","city":"nausori","accentcity":"Nausori","region":5.0,"population":"","latitude":-17.55,"longitude":178.233337},
{"country":"fj","city":"nauthiwai","accentcity":"Nauthiwai","region":2.0,"population":"","latitude":-18.95,"longitude":178.316666},
{"country":"fj","city":"navaga","accentcity":"Navaga","region":3.0,"population":"","latitude":-17.3166676,"longitude":179.366669},
{"country":"fj","city":"navai","accentcity":"Navai","region":5.0,"population":"","latitude":-17.6166668,"longitude":177.983337},