[
{"country":"me","city":"blace","accentcity":"Blace","region":0.0,"population":"","latitude":42.92889,"longitude":20.18861},
{"country":"me","city":"blagojevic","accentcity":"Blagojevic","region":0.0,"population":"","latitude":42.5719452,"longitude":18.6336117},
{"country":"me","city":"blatina","accentcity":"Blatina","region":0.0,"population":"","latitude":42.8516655,"longitude":19.4844437},
{"country":"me","city":"blatka","accentcity":"Blatka","region":0.0,"population":"","latitude":42.955,"longitude":19.8863888},
{"country":"me","city":"bliskovo","accentcity":"Bliskovo","region":0.0,"population":"","latitude":43.1427765,"longitude":19.5477772},
{"country":"me","city":"blizikuce","accentcity":"Blizikuce","region":0.0,"population":"","latitude":42.2455559,"longitude":18.9044437},
{"country":"me","city":"blizna","accentcity":"Blizna","region":0.0,"population":"","latitude":42.50833,"longitude":18.8033333},
{"country":"me","city":"blizurat","accentcity":"Blizurat","region":0.0,"population":"","latitude":42.5438881,"longitude":18.917778},
{"country":"me","city":"bljaca","accentcity":"Bljaca","region":0.0,"population":"","latitude":42.1230545,"longitude":19.25639},
{"country":"me","city":"bljekov mramor","accentcity":"Bljekov Mramor","region":0.0,"population":"","latitude":43.09111,"longitude":19.2780552},
{"country":"me","city":"boan","accentcity":"Boan","region":0.0,"population":"","latitude":42.9413872,"longitude":19.2127781},
{"country":"me","city":"bobija","accentcity":"Bobija","region":0.0,"population":"","latitude":42.34778,"longitude":19.1416664},
{"country":"me","city":"bobotovo groblje","accentcity":"Bobotovo Groblje","region":0.0,"population":"","latitude":43.0305557,"longitude":18.66},
{"country":"me","city":"bobova ulica","accentcity":"Bobova Ulica","region":0.0,"population":"","latitude":42.6458321,"longitude":18.68361},
{"country":"me","city":"bobovine","accentcity":"Bobovine","region":0.0,"population":"","latitude":42.3494453,"longitude":19.1516666},
{"country":"me","city":"bobovista","accentcity":"Bobovista","region":0.0,"population":"","latitude":42.1152763,"longitude":19.271389},
{"country":"me","city":"boboviste","accentcity":"Boboviste","region":0.0,"population":"","latitude":42.1152763,"longitude":19.271389},
{"country":"me","city":"bobovo","accentcity":"Bobovo","region":0.0,"population":"","latitude":43.2705574,"longitude":19.1294441},
{"country":"me","city":"bobulja","accentcity":"Bobulja","region":0.0,"population":"","latitude":42.55389,"longitude":19.1633339},
{"country":"me","city":"bogaj","accentcity":"Bogaj","region":0.0,"population":"","latitude":42.84611,"longitude":20.085},
{"country":"me","city":"bogaje","accentcity":"Bogaje","region":0.0,"population":"","latitude":42.84611,"longitude":20.085},
{"country":"me","city":"bogaji","accentcity":"Bogaji","region":0.0,"population":"","latitude":42.84611,"longitude":20.085},
{"country":"me","city":"bogajice","accentcity":"Bogajice","region":0.0,"population":"","latitude":42.5830574,"longitude":19.9536114},
{"country":"me","city":"bogajici","accentcity":"Bogajici","region":0.0,"population":"","latitude":42.5830574,"longitude":19.9536114},
{"country":"me","city":"bogajni","accentcity":"Bogajni","region":0.0,"population":"","latitude":42.84611,"longitude":20.085},
{"country":"me","city":"bogdasici","accentcity":"Bogdasici","region":0.0,"population":"","latitude":42.4252777,"longitude":18.7347221},
{"country":"me","city":"bogetic","accentcity":"Bogetic","region":0.0,"population":"","latitude":42.3369446,"longitude":18.79139},
{"country":"me","city":"bogetici","accentcity":"Bogetici","region":0.0,"population":"","latitude":42.3369446,"longitude":18.79139},
{"country":"me","city":"bogiceici","accentcity":"Bogiceici","region":0.0,"population":"","latitude":42.5777779,"longitude":19.0766678},
{"country":"me","city":"bogicevica","accentcity":"Bogicevica","region":0.0,"population":"","latitude":42.5505562,"longitude":18.63889},
{"country":"me","city":"bogicevici","accentcity":"Bogicevici","region":0.0,"population":"","latitude":42.5777779,"longitude":19.0766678},
{"country":"me","city":"bogisici","accentcity":"Bogisici","region":0.0,"population":"","latitude":42.398056,"longitude":18.6808338},
{"country":"me","city":"bogmilovici","accentcity":"Bogmilovici","region":0.0,"population":"","latitude":42.61222,"longitude":19.0127773},
{"country":"me","city":"bogojev do","accentcity":"Bogojev Do","region":0.0,"population":"","latitude":42.63778,"longitude":18.7311115},
{"country":"me","city":"bogomilici","accentcity":"Bogomilici","region":0.0,"population":"","latitude":42.61222,"longitude":19.0127773},
{"country":"me","city":"bogomolja","accentcity":"Bogomolja","region":0.0,"population":"","latitude":43.1305542,"longitude":19.2875},
{"country":"me","city":"bogomolje","accentcity":"Bogomolje","region":0.0,"population":"","latitude":43.1305542,"longitude":19.2875},
{"country":"me","city":"boguti","accentcity":"Boguti","region":0.0,"population":"","latitude":42.32028,"longitude":18.9811115},
{"country":"me","city":"bogutov do","accentcity":"Bogutov Do","region":0.0,"population":"","latitude":42.684166,"longitude":19.353611},
{"country":"me","city":"bojanic","accentcity":"Bojanic","region":0.0,"population":"","latitude":42.5655556,"longitude":18.6555557},
{"country":"me","city":"bojanje brdo","accentcity":"Bojanje Brdo","region":0.0,"population":"","latitude":42.65889,"longitude":18.6147213},
{"country":"me","city":"bojate","accentcity":"Bojate","region":0.0,"population":"","latitude":43.2547226,"longitude":18.9575},
{"country":"me","city":"bojati","accentcity":"Bojati","region":0.0,"population":"","latitude":43.2547226,"longitude":18.9575},
{"country":"me","city":"bojici","accentcity":"Bojici","region":0.0,"population":"","latitude":42.8669434,"longitude":19.2933331},
{"country":"me","city":"bojin do","accentcity":"Bojin Do","region":0.0,"population":"","latitude":42.72278,"longitude":19.4141674},
{"country":"me","city":"bojista","accentcity":"Bojista","region":0.0,"population":"","latitude":43.0,"longitude":19.6897221},
{"country":"me","city":"bojiste","accentcity":"Bojiste","region":0.0,"population":"","latitude":43.0,"longitude":19.6897221},
{"country":"me","city":"bojka","accentcity":"Bojka","region":0.0,"population":"","latitude":42.0383339,"longitude":19.2869434},
{"country":"me","city":"bojke","accentcity":"Bojke","region":0.0,"population":"","latitude":42.0383339,"longitude":19.2869434},
{"country":"me","city":"bojovice","accentcity":"Bojovice","region":0.0,"population":"","latitude":42.7058334,"longitude":19.7977772},
{"country":"me","city":"bojovici","accentcity":"Bojovici","region":0.0,"population":"","latitude":42.58278,"longitude":19.7880554},
{"country":"me","city":"bojovina","accentcity":"Bojovina","region":0.0,"population":"","latitude":43.36972,"longitude":19.4280567},
{"country":"me","city":"bojska gora","accentcity":"Bojska Gora","region":0.0,"population":"","latitude":42.6955566,"longitude":19.365},
{"country":"me","city":"bokovo","accentcity":"Bokovo","region":0.0,"population":"","latitude":42.39861,"longitude":18.97},
{"country":"me","city":"boksin do","accentcity":"Boksin Do","region":0.0,"population":"","latitude":42.66861,"longitude":18.6683331},
{"country":"me","city":"bolesestra","accentcity":"Bolesestra","region":0.0,"population":"","latitude":42.5905571,"longitude":19.4208336},
{"country":"me","city":"bolevici","accentcity":"Bolevici","region":0.0,"population":"","latitude":42.0727768,"longitude":19.3169441},
{"country":"me","city":"boljanic","accentcity":"Boljanic","region":0.0,"population":"","latitude":43.455555,"longitude":19.2133331},
{"country":"me","city":"boljanici","accentcity":"Boljanici","region":0.0,"population":"","latitude":43.45,"longitude":19.2069435},
{"country":"me","city":"boljanina","accentcity":"Boljanina","region":0.0,"population":"","latitude":43.0377769,"longitude":19.7991676},
{"country":"me","city":"boljesestra","accentcity":"Boljesestra","region":0.0,"population":"","latitude":42.5905571,"longitude":19.4208336},
{"country":"me","city":"boljev do","accentcity":"Boljev Do","region":0.0,"population":"","latitude":42.49778,"longitude":19.34361},
{"country":"me","city":"boljevici","accentcity":"Boljevici","region":0.0,"population":"","latitude":42.2225,"longitude":19.0875},
{"country":"me","city":"bolosave","accentcity":"Bolosave","region":0.0,"population":"","latitude":42.7566681,"longitude":18.6155567},
{"country":"me","city":"dusici","accentcity":"Dusici","region":0.0,"population":"","latitude":42.3458328,"longitude":19.3075},
{"country":"me","city":"duske","accentcity":"Duske","region":0.0,"population":"","latitude":42.00861,"longitude":19.1925},
{"country":"me","city":"duskici","accentcity":"Duskici","region":0.0,"population":"","latitude":42.00861,"longitude":19.1925},
{"country":"me","city":"dusko","accentcity":"Dusko","region":0.0,"population":"","latitude":42.628334,"longitude":19.4433327},
{"country":"me","city":"duzice","accentcity":"Duzice","region":0.0,"population":"","latitude":43.5291672,"longitude":19.02389},
{"country":"me","city":"duzi","accentcity":"Duzi","region":0.0,"population":"","latitude":42.976944,"longitude":19.025},
{"country":"me","city":"dvorista","accentcity":"Dvorista","region":0.0,"population":"","latitude":43.4541664,"longitude":19.1783333},
{"country":"me","city":"dzaferov do","accentcity":"Dzaferov Do","region":0.0,"population":"","latitude":43.34778,"longitude":18.86139},
{"country":"me","city":"dzafica brdo","accentcity":"Dzafica Brdo","region":0.0,"population":"","latitude":43.0438881,"longitude":19.7555561},
{"country":"me","city":"dzogulja","accentcity":"Dzogulja","region":0.0,"population":"","latitude":42.585556,"longitude":19.1586113},
{"country":"me","city":"dzudzevici","accentcity":"Dzudzevici","region":0.0,"population":"","latitude":42.87528,"longitude":20.3072224},
{"country":"me","city":"dzukelska jama","accentcity":"Dzukelska Jama","region":0.0,"population":"","latitude":43.0625,"longitude":19.4702778},
{"country":"me","city":"dzuveri","accentcity":"Dzuveri","region":0.0,"population":"","latitude":43.24139,"longitude":19.115},
{"country":"me","city":"elezov do","accentcity":"Elezov Do","region":0.0,"population":"","latitude":42.6902771,"longitude":18.665},
{"country":"me","city":"elici","accentcity":"Elici","region":0.0,"population":"","latitude":42.7822227,"longitude":18.6308327},
{"country":"me","city":"eraci","accentcity":"Eraci","region":0.0,"population":"","latitude":42.40278,"longitude":18.5969448},
{"country":"me","city":"erakovici","accentcity":"Erakovici","region":0.0,"population":"","latitude":42.4347229,"longitude":18.83},
{"country":"me","city":"ercegnovi","accentcity":"Ercegnovi","region":0.0,"population":"","latitude":42.4530563,"longitude":18.5375},
{"country":"me","city":"erovici","accentcity":"Erovici","region":0.0,"population":"","latitude":43.0130577,"longitude":19.9641666},
{"country":"me","city":"farmaci","accentcity":"Farmaci","region":0.0,"population":"","latitude":42.4141655,"longitude":19.1919441},
{"country":"me","city":"fazlovici","accentcity":"Fazlovici","region":0.0,"population":"","latitude":43.16528,"longitude":19.6852779},
{"country":"me","city":"femica krs","accentcity":"Femica Krs","region":0.0,"population":"","latitude":42.9741669,"longitude":19.7902775},
{"country":"me","city":"feratovo polje","accentcity":"Feratovo Polje","region":0.0,"population":"","latitude":42.93861,"longitude":19.5672226},
{"country":"me","city":"fijernje","accentcity":"Fijernje","region":0.0,"population":"","latitude":42.21389,"longitude":19.0261116},
{"country":"me","city":"firista","accentcity":"Firista","region":0.0,"population":"","latitude":42.6763878,"longitude":19.9208336},
{"country":"me","city":"franciskovici","accentcity":"Franciskovici","region":0.0,"population":"","latitude":42.4080544,"longitude":18.6547222},
{"country":"me","city":"fraskanjel","accentcity":"Fraskanjel","region":0.0,"population":"","latitude":41.96722,"longitude":19.3836117},
{"country":"me","city":"frutak","accentcity":"Frutak","region":0.0,"population":"","latitude":42.5811119,"longitude":19.06361},
{"country":"me","city":"fundina","accentcity":"Fundina","region":0.0,"population":"","latitude":42.4416656,"longitude":19.3666668},
{"country":"me","city":"fusa e nenes","accentcity":"Fusa e Nenes","region":0.0,"population":"","latitude":42.43833,"longitude":19.3319435},
{"country":"me","city":"fustici","accentcity":"Fustici","region":0.0,"population":"","latitude":43.0377769,"longitude":19.5658321},
{"country":"me","city":"gacevica dolina","accentcity":"Gacevica Dolina","region":0.0,"population":"","latitude":43.27833,"longitude":19.4344444},
{"country":"me","city":"gacevici","accentcity":"Gacevici","region":0.0,"population":"","latitude":42.44361,"longitude":18.7888889},
{"country":"me","city":"gadi","accentcity":"Gadi","region":0.0,"population":"","latitude":42.2866669,"longitude":19.02389},
{"country":"me","city":"gagosi","accentcity":"Gagosi","region":0.0,"population":"","latitude":42.3277779,"longitude":19.0633335},
{"country":"me","city":"gajevi","accentcity":"Gajevi","region":0.0,"population":"","latitude":43.3816681,"longitude":19.2372227},
{"country":"me","city":"gaj","accentcity":"Gaj","region":0.0,"population":"","latitude":43.4883347,"longitude":19.1080551},
{"country":"me","city":"gajine","accentcity":"Gajine","region":0.0,"population":"","latitude":43.395,"longitude":19.28139},
{"country":"me","city":"gajne","accentcity":"Gajne","region":0.0,"population":"","latitude":43.395,"longitude":19.28139},
{"country":"me","city":"galica","accentcity":"Galica","region":0.0,"population":"","latitude":42.90139,"longitude":20.0297222},
{"country":"me","city":"gardasevici","accentcity":"Gardasevici","region":0.0,"population":"","latitude":42.6794434,"longitude":18.8497219},
{"country":"me","city":"gardovici","accentcity":"Gardovici","region":0.0,"population":"","latitude":43.3875,"longitude":19.1930561},
{"country":"me","city":"garevac","accentcity":"Garevac","region":0.0,"population":"","latitude":42.9216652,"longitude":18.5722218},
{"country":"me","city":"gerani","accentcity":"Gerani","region":0.0,"population":"","latitude":42.53278,"longitude":19.8277779},
{"country":"me","city":"geusi","accentcity":"Geusi","region":0.0,"population":"","latitude":43.5027771,"longitude":18.9241676},
{"country":"me","city":"gigcvici","accentcity":"Gigcvici","region":0.0,"population":"","latitude":42.2991676,"longitude":18.8502789},
{"country":"me","city":"gigovici","accentcity":"Gigovici","region":0.0,"population":"","latitude":41.980278,"longitude":19.26639},
{"country":"me","city":"gilinoge","accentcity":"Gilinoge","region":0.0,"population":"","latitude":42.9783325,"longitude":19.64139},
{"country":"me","city":"gjenovic","accentcity":"Gjenovic","region":0.0,"population":"","latitude":42.4369431,"longitude":18.6022224},
{"country":"me","city":"gjurasevic","accentcity":"Gjurasevic","region":0.0,"population":"","latitude":42.394722,"longitude":18.6883335},
{"country":"me","city":"glavaca","accentcity":"Glavaca","region":0.0,"population":"","latitude":42.88333,"longitude":19.7758331},
{"country":"me","city":"glavac","accentcity":"Glavac","region":0.0,"population":"","latitude":42.88333,"longitude":19.7758331},
{"country":"me","city":"glavaci","accentcity":"Glavaci","region":0.0,"population":"","latitude":42.88333,"longitude":19.7758331},
{"country":"me","city":"glavaticici","accentcity":"Glavaticici","region":0.0,"population":"","latitude":42.3294449,"longitude":18.7369442},
{"country":"me","city":"glavatici","accentcity":"Glavatici","region":0.0,"population":"","latitude":42.33139,"longitude":18.7338886},
{"country":"me","city":"glavati","accentcity":"Glavati","region":0.0,"population":"","latitude":42.3075,"longitude":18.7755566},
{"country":"me","city":"glavatske kucice","accentcity":"Glavatske Kucice","region":0.0,"population":"","latitude":42.31333,"longitude":18.7863884},
{"country":"me","city":"glava zete","accentcity":"Glava Zete","region":0.0,"population":"","latitude":42.665,"longitude":18.99889},
{"country":"me","city":"glavica","accentcity":"Glavica","region":0.0,"population":"","latitude":42.5527763,"longitude":19.0952778},
{"country":"me","city":"glibaci","accentcity":"Glibaci","region":0.0,"population":"","latitude":43.22028,"longitude":19.2375},
{"country":"me","city":"glibavac","accentcity":"Glibavac","region":0.0,"population":"","latitude":42.8030548,"longitude":18.9488888},
{"country":"me","city":"gligorov do","accentcity":"Gligorov Do","region":0.0,"population":"","latitude":42.7830544,"longitude":18.7183323},
{"country":"me","city":"gligorski dolovi","accentcity":"Gligorski Dolovi","region":0.0,"population":"","latitude":42.7630577,"longitude":19.6116676},
{"country":"me","city":"glisin do","accentcity":"Glisin Do","region":0.0,"population":"","latitude":43.0769424,"longitude":19.1555557},
{"country":"me","city":"gostojevici","accentcity":"Gostojevici","region":0.0,"population":"","latitude":42.685,"longitude":18.9722214},
{"country":"me","city":"gostovici","accentcity":"Gostovici","region":0.0,"population":"","latitude":42.29889,"longitude":18.7533321},
{"country":"me","city":"gotovusa","accentcity":"Gotovusa","region":0.0,"population":"","latitude":43.40111,"longitude":19.2902775},
{"country":"me","city":"govede brdo","accentcity":"Govede Brdo","region":0.0,"population":"","latitude":43.2527771,"longitude":19.4566669},
{"country":"me","city":"grabe","accentcity":"Grabe","region":0.0,"population":"","latitude":42.4466667,"longitude":18.6419449},
{"country":"me","city":"grab","accentcity":"Grab","region":0.0,"population":"","latitude":42.36111,"longitude":19.0580559},
{"country":"me","city":"grabova gomila","accentcity":"Grabova Gomila","region":0.0,"population":"","latitude":42.52972,"longitude":18.9394436},
{"country":"me","city":"grabov do","accentcity":"Grabov Do","region":0.0,"population":"","latitude":42.5302773,"longitude":18.6705551},
{"country":"me","city":"grabovica","accentcity":"Grabovica","region":0.0,"population":"","latitude":42.21583,"longitude":18.9541664},
{"country":"me","city":"grabovi do","accentcity":"Grabovi Do","region":0.0,"population":"","latitude":42.4486122,"longitude":19.0105553},
{"country":"me","city":"grabovnik","accentcity":"Grabovnik","region":0.0,"population":"","latitude":43.0366669,"longitude":19.7727776},
{"country":"me","city":"gracanica","accentcity":"Gracanica","region":0.0,"population":"","latitude":42.6930542,"longitude":19.8513889},
{"country":"me","city":"gradac","accentcity":"Gradac","region":0.0,"population":"","latitude":42.4133339,"longitude":19.0927773},
{"country":"me","city":"gradacka poljana","accentcity":"Gradacka Poljana","region":0.0,"population":"","latitude":42.88028,"longitude":19.0858326},
{"country":"me","city":"gradani","accentcity":"Gradani","region":0.0,"population":"","latitude":42.2747231,"longitude":19.00361},
{"country":"me","city":"grad","accentcity":"Grad","region":0.0,"population":"","latitude":42.6833344,"longitude":19.3655567},
{"country":"me","city":"gradina","accentcity":"Gradina","region":0.0,"population":"","latitude":42.5269432,"longitude":18.8375},
{"country":"me","city":"gradiosnica","accentcity":"Gradiosnica","region":0.0,"population":"","latitude":42.4208336,"longitude":18.7272224},
{"country":"me","city":"grahovac","accentcity":"Grahovac","region":0.0,"population":"","latitude":42.68778,"longitude":18.61139},
{"country":"me","city":"grahovo","accentcity":"Grahovo","region":0.0,"population":"","latitude":42.6525,"longitude":18.6713886},
{"country":"me","city":"grahovski dolovi","accentcity":"Grahovski Dolovi","region":0.0,"population":"","latitude":42.65222,"longitude":18.71889},
{"country":"me","city":"grancarevo","accentcity":"Grancarevo","region":0.0,"population":"","latitude":43.09889,"longitude":19.6769447},
{"country":"me","city":"grandov do","accentcity":"Grandov Do","region":0.0,"population":"","latitude":42.5936127,"longitude":18.7263889},
{"country":"me","city":"grandovina","accentcity":"Grandovina","region":0.0,"population":"","latitude":42.6044426,"longitude":18.6908321},
{"country":"me","city":"granica","accentcity":"Granica","region":0.0,"population":"","latitude":42.4244423,"longitude":19.08},
{"country":"me","city":"granice","accentcity":"Granice","region":0.0,"population":"","latitude":42.8297234,"longitude":18.9886112},
{"country":"me","city":"granovo","accentcity":"Granovo","region":0.0,"population":"","latitude":42.8694458,"longitude":20.1761112},
{"country":"me","city":"graovista","accentcity":"Graovista","region":0.0,"population":"","latitude":43.4411125,"longitude":19.1558323},
{"country":"me","city":"grbavci","accentcity":"Grbavci","region":0.0,"population":"","latitude":42.36722,"longitude":19.1888885},
{"country":"me","city":"grbe","accentcity":"Grbe","region":0.0,"population":"","latitude":42.5,"longitude":19.1958332},
{"country":"me","city":"grbi do","accentcity":"Grbi Do","region":0.0,"population":"","latitude":42.63361,"longitude":19.4791679},
{"country":"me","city":"grcka stanica","accentcity":"Grcka Stanica","region":0.0,"population":"","latitude":43.09222,"longitude":19.1555557},
{"country":"me","city":"grdoci","accentcity":"Grdoci","region":0.0,"population":"","latitude":42.0852776,"longitude":19.3238888},
{"country":"me","city":"grdovici","accentcity":"Grdovici","region":0.0,"population":"","latitude":42.0330544,"longitude":19.18639},
{"country":"me","city":"grdovine","accentcity":"Grdovine","region":0.0,"population":"","latitude":42.72778,"longitude":19.376667},
{"country":"me","city":"grebice","accentcity":"Grebice","region":0.0,"population":"","latitude":42.795,"longitude":18.9297218},
{"country":"me","city":"grebnica","accentcity":"Grebnica","region":0.0,"population":"","latitude":42.815,"longitude":18.6905556},
{"country":"me","city":"greca","accentcity":"Greca","region":0.0,"population":"","latitude":42.4919434,"longitude":19.3566666},
{"country":"me","city":"grepca","accentcity":"Grepca","region":0.0,"population":"","latitude":42.7591667,"longitude":18.540556},
{"country":"me","city":"grevo","accentcity":"Grevo","region":0.0,"population":"","latitude":43.32,"longitude":19.34639},
{"country":"me","city":"grizica","accentcity":"Grizica","region":0.0,"population":"","latitude":42.90472,"longitude":20.1602783},
{"country":"me","city":"grizice","accentcity":"Grizice","region":0.0,"population":"","latitude":42.90472,"longitude":20.1602783},
{"country":"me","city":"grkavac","accentcity":"Grkavac","region":0.0,"population":"","latitude":42.5475,"longitude":18.7125},
{"country":"me","city":"grkovac","accentcity":"Grkovac","region":0.0,"population":"","latitude":42.5475,"longitude":18.7125},
{"country":"me","city":"grlic","accentcity":"Grlic","region":0.0,"population":"","latitude":42.5480576,"longitude":19.1122227},
{"country":"me","city":"grncar","accentcity":"Grncar","region":0.0,"population":"","latitude":42.5766678,"longitude":19.7969437},
{"country":"me","city":"gropa e morisit","accentcity":"Gropa e Morisit","region":0.0,"population":"","latitude":42.4316673,"longitude":19.33361},
{"country":"me","city":"gropa","accentcity":"Gropa","region":0.0,"population":"","latitude":42.5130577,"longitude":19.0988884},
{"country":"me","city":"gropa smailova","accentcity":"Gropa Smailova","region":0.0,"population":"","latitude":42.5866661,"longitude":19.9027786},
{"country":"me","city":"gropa smajlova","accentcity":"Gropa Smajlova","region":0.0,"population":"","latitude":42.5866661,"longitude":19.9027786},
{"country":"me","city":"grubani","accentcity":"Grubani","region":0.0,"population":"","latitude":42.3872223,"longitude":19.1236115},
{"country":"me","city":"grubanova gora","accentcity":"Grubanova Gora","region":0.0,"population":"","latitude":43.13222,"longitude":19.5833321},
{"country":"me","city":"grubesice","accentcity":"Grubesice","region":0.0,"population":"","latitude":43.1483345,"longitude":19.6541672},
{"country":"me","city":"grubesici","accentcity":"Grubesici","region":0.0,"population":"","latitude":43.1483345,"longitude":19.6541672},
{"country":"me","city":"grubin do","accentcity":"Grubin Do","region":0.0,"population":"","latitude":42.55111,"longitude":18.7644444},
{"country":"me","city":"gruda","accentcity":"Gruda","region":0.0,"population":"","latitude":42.3819427,"longitude":18.9222221},
{"country":"me","city":"grudevica","accentcity":"Grudevica","region":0.0,"population":"","latitude":42.9858322,"longitude":19.7705555},
{"country":"me","city":"gubavac","accentcity":"Gubavac","region":0.0,"population":"","latitude":43.09667,"longitude":19.7819443},
{"country":"me","city":"gubce","accentcity":"Gubce","region":0.0,"population":"","latitude":43.105278,"longitude":19.72611},
{"country":"me","city":"guberinici","accentcity":"Guberinici","region":0.0,"population":"","latitude":42.6366653,"longitude":19.4855556},
{"country":"me","city":"gubovaca","accentcity":"Gubovaca","region":0.0,"population":"","latitude":43.09667,"longitude":19.7819443},
{"country":"me","city":"guci","accentcity":"Guci","region":0.0,"population":"","latitude":42.5619431,"longitude":19.833889},
{"country":"me","city":"gudure","accentcity":"Gudure","region":0.0,"population":"","latitude":43.1294441,"longitude":19.6713886},
{"country":"me","city":"guke","accentcity":"Guke","region":0.0,"population":"","latitude":43.3597221,"longitude":19.3397217},
{"country":"me","city":"kolonija","accentcity":"Kolonija","region":0.0,"population":"","latitude":43.38778,"longitude":19.0652771},
{"country":"me","city":"kolonija sula","accentcity":"Kolonija Sula","region":0.0,"population":"","latitude":43.38778,"longitude":19.0652771},
{"country":"me","city":"kolonza","accentcity":"Kolonza","region":0.0,"population":"","latitude":41.93528,"longitude":19.2508335},
{"country":"me","city":"kolozun","accentcity":"Kolozun","region":0.0,"population":"","latitude":42.355278,"longitude":18.8125},
{"country":"me","city":"kolumbara","accentcity":"Kolumbara","region":0.0,"population":"","latitude":42.7463875,"longitude":19.6538887},
{"country":"me","city":"komacev laz","accentcity":"Komacev Laz","region":0.0,"population":"","latitude":42.4375,"longitude":19.0097218},
{"country":"me","city":"komadine","accentcity":"Komadine","region":0.0,"population":"","latitude":43.0905571,"longitude":19.8694439},
{"country":"me","city":"komanica","accentcity":"Komanica","region":0.0,"population":"","latitude":43.3244438,"longitude":18.9133339},
{"country":"me","city":"komansko brdo","accentcity":"Komansko Brdo","region":0.0,"population":"","latitude":42.4263878,"longitude":19.06139},
{"country":"me","city":"komaraca","accentcity":"Komaraca","region":0.0,"population":"","latitude":42.61722,"longitude":19.9652786},
{"country":"me","city":"komarice","accentcity":"Komarice","region":0.0,"population":"","latitude":43.27,"longitude":19.4466667},
{"country":"me","city":"komarino","accentcity":"Komarino","region":0.0,"population":"","latitude":42.2883339,"longitude":19.060833},
{"country":"me","city":"komarnica","accentcity":"Komarnica","region":0.0,"population":"","latitude":43.00639,"longitude":19.0591679},
{"country":"me","city":"komarno","accentcity":"Komarno","region":0.0,"population":"","latitude":42.2883339,"longitude":19.060833},
{"country":"me","city":"komarski kraj","accentcity":"Komarski Kraj","region":0.0,"population":"","latitude":43.10889,"longitude":19.1247215},
{"country":"me","city":"komina","accentcity":"Komina","region":0.0,"population":"","latitude":42.0219421,"longitude":19.1608334},
{"country":"me","city":"komine","accentcity":"Komine","region":0.0,"population":"","latitude":43.3366661,"longitude":19.3111115},
{"country":"me","city":"komini","accentcity":"Komini","region":0.0,"population":"","latitude":43.476944,"longitude":19.03139},
{"country":"me","city":"koministe","accentcity":"Koministe","region":0.0,"population":"","latitude":42.7658348,"longitude":19.12111},
{"country":"me","city":"komosevina","accentcity":"Komosevina","region":0.0,"population":"","latitude":42.28,"longitude":18.8291664},
{"country":"me","city":"konatari","accentcity":"Konatari","region":0.0,"population":"","latitude":43.1033325,"longitude":19.775},
{"country":"me","city":"konate","accentcity":"Konate","region":0.0,"population":"","latitude":43.00722,"longitude":19.3297215},
{"country":"me","city":"konik","accentcity":"Konik","region":0.0,"population":"","latitude":42.4369431,"longitude":19.2833328},
{"country":"me","city":"konisor","accentcity":"Konisor","region":0.0,"population":"","latitude":42.56333,"longitude":18.7994442},
{"country":"me","city":"konjevici","accentcity":"Konjevici","region":0.0,"population":"","latitude":42.49278,"longitude":18.4627781},
{"country":"me","city":"konjuhe","accentcity":"Konjuhe","region":0.0,"population":"","latitude":42.7033348,"longitude":19.7352772},
{"country":"me","city":"konjuh","accentcity":"Konjuh","region":0.0,"population":"","latitude":42.7033348,"longitude":19.7352772},
{"country":"me","city":"kopacine","accentcity":"Kopacine","region":0.0,"population":"","latitude":42.8825,"longitude":18.6494446},
{"country":"me","city":"kopiljaca [historical]","accentcity":"Kopiljaca [historical]","region":0.0,"population":"","latitude":42.56389,"longitude":20.0025},
{"country":"me","city":"kopilje","accentcity":"Kopilje","region":0.0,"population":"","latitude":42.5566673,"longitude":19.25361},
{"country":"me","city":"kopilov do","accentcity":"Kopilov Do","region":0.0,"population":"","latitude":42.67917,"longitude":18.6786118},
{"country":"me","city":"kopito","accentcity":"Kopito","region":0.0,"population":"","latitude":42.42611,"longitude":18.8205566},
{"country":"me","city":"kopito petrovica","accentcity":"Kopito Petrovica","region":0.0,"population":"","latitude":42.5441666,"longitude":19.1366673},
{"country":"me","city":"kopitov do","accentcity":"Kopitov Do","region":0.0,"population":"","latitude":42.6077766,"longitude":18.7297211},
{"country":"me","city":"koprivice","accentcity":"Koprivice","region":0.0,"population":"","latitude":42.9083328,"longitude":18.57889},
{"country":"me","city":"koprivnjaca","accentcity":"Koprivnjaca","region":0.0,"population":"","latitude":43.0280571,"longitude":19.4302788},
{"country":"me","city":"koracevac","accentcity":"Koracevac","region":0.0,"population":"","latitude":42.73389,"longitude":18.8275},
{"country":"me","city":"koraci","accentcity":"Koraci","region":0.0,"population":"","latitude":42.9127769,"longitude":19.9563885},
{"country":"me","city":"koraj-do","accentcity":"Koraj-Do","region":0.0,"population":"","latitude":42.60583,"longitude":19.4775},
{"country":"me","city":"koravlica","accentcity":"Koravlica","region":0.0,"population":"","latitude":42.84528,"longitude":18.4741669},
{"country":"me","city":"koravljica","accentcity":"Koravljica","region":0.0,"population":"","latitude":42.84528,"longitude":18.4741669},
{"country":"me","city":"kordovina","accentcity":"Kordovina","region":0.0,"population":"","latitude":43.20778,"longitude":19.3905563},
{"country":"me","city":"korijen","accentcity":"Korijen","region":0.0,"population":"","latitude":42.6097221,"longitude":19.4758339},
{"country":"me","city":"korita","accentcity":"Korita","region":0.0,"population":"","latitude":42.4897232,"longitude":19.53389},
{"country":"me","city":"korite","accentcity":"Korit�","region":0.0,"population":"","latitude":43.0372238,"longitude":19.9797211},
{"country":"me","city":"koritnica","accentcity":"Koritnica","region":0.0,"population":"","latitude":43.1055565,"longitude":19.5155563},
{"country":"me","city":"koritni do","accentcity":"Koritni Do","region":0.0,"population":"","latitude":42.57139,"longitude":18.6402779},
{"country":"me","city":"koritnik","accentcity":"Koritnik","region":0.0,"population":"","latitude":43.1055565,"longitude":19.5155563},
{"country":"me","city":"korito","accentcity":"Korito","region":0.0,"population":"","latitude":42.9608345,"longitude":18.72},
{"country":"me","city":"kornet","accentcity":"Kornet","region":0.0,"population":"","latitude":42.4116669,"longitude":19.1416664},
{"country":"me","city":"koruge","accentcity":"Koruge","region":0.0,"population":"","latitude":43.3480568,"longitude":19.3197212},
{"country":"me","city":"kosanica","accentcity":"Kosanica","region":0.0,"population":"","latitude":43.1930542,"longitude":19.3216667},
{"country":"me","city":"kosare","accentcity":"Kosare","region":0.0,"population":"","latitude":43.1922226,"longitude":19.3402786},
{"country":"me","city":"kosari","accentcity":"Kosari","region":0.0,"population":"","latitude":43.1922226,"longitude":19.3402786},
{"country":"me","city":"koserici","accentcity":"Koserici","region":0.0,"population":"","latitude":42.95639,"longitude":19.1366673},
{"country":"me","city":"kosetine","accentcity":"Kosetine","region":0.0,"population":"","latitude":42.7327766,"longitude":19.3811111},
{"country":"me","city":"kosevine","accentcity":"Kosevine","region":0.0,"population":"","latitude":43.11111,"longitude":19.7083321},
{"country":"me","city":"kosice","accentcity":"Kosice","region":0.0,"population":"","latitude":43.0047226,"longitude":19.0075},
{"country":"me","city":"kosici","accentcity":"Kosici","region":0.0,"population":"","latitude":42.0258331,"longitude":19.273056},
{"country":"me","city":"kosic","accentcity":"Kosic","region":0.0,"population":"","latitude":42.0258331,"longitude":19.273056},
{"country":"me","city":"kosijeri","accentcity":"Kosijeri","region":0.0,"population":"","latitude":42.41833,"longitude":18.9727783},
{"country":"me","city":"kosjeri","accentcity":"Kosjeri","region":0.0,"population":"","latitude":42.7461128,"longitude":19.3752785},
{"country":"me","city":"kos","accentcity":"Kos","region":0.0,"population":"","latitude":42.71583,"longitude":19.4683323},
{"country":"me","city":"kosljun","accentcity":"Kosljun","region":0.0,"population":"","latitude":42.2916679,"longitude":18.8591671},
{"country":"me","city":"petijevici","accentcity":"Petijevici","region":0.0,"population":"","latitude":42.51472,"longitude":18.4891663},
{"country":"me","city":"petine","accentcity":"Petine","region":0.0,"population":"","latitude":43.4188881,"longitude":19.0572224},
{"country":"me","city":"petinici","accentcity":"Petinici","region":0.0,"population":"","latitude":43.4136124,"longitude":19.2158337},
{"country":"me","city":"petkovici","accentcity":"Petkovici","region":0.0,"population":"","latitude":42.65889,"longitude":18.6358337},
{"country":"me","city":"petkovic","accentcity":"Petkovic","region":0.0,"population":"","latitude":42.8002777,"longitude":20.1586113},
{"country":"me","city":"petnica","accentcity":"Petnica","region":0.0,"population":"","latitude":42.90889,"longitude":19.9644432},
{"country":"me","city":"petnik","accentcity":"Petnik","region":0.0,"population":"","latitude":42.8330574,"longitude":19.9047222},
{"country":"me","city":"petnjica","accentcity":"Petnjica","region":0.0,"population":"","latitude":42.90889,"longitude":19.9644432},
{"country":"me","city":"petnjik","accentcity":"Petnjik","region":0.0,"population":"","latitude":42.8330574,"longitude":19.9047222},
{"country":"me","city":"petolik","accentcity":"Petolik","region":0.0,"population":"","latitude":43.0102768,"longitude":19.6375},
{"country":"me","city":"petrici","accentcity":"Petrici","region":0.0,"population":"","latitude":42.62389,"longitude":19.0602779},
{"country":"me","city":"petrovac na moru","accentcity":"Petrovac na Moru","region":0.0,"population":"","latitude":42.205555,"longitude":18.9425},
{"country":"me","city":"petrovac","accentcity":"Petrovac","region":0.0,"population":"","latitude":42.205555,"longitude":18.9425},
{"country":"me","city":"petrova ljut","accentcity":"Petrova Ljut","region":0.0,"population":"","latitude":42.42389,"longitude":18.80889},
{"country":"me","city":"petrova ravan","accentcity":"Petrova Ravan","region":0.0,"population":"","latitude":42.7291679,"longitude":19.41639},
{"country":"me","city":"petrov do","accentcity":"Petrov Do","region":0.0,"population":"","latitude":42.43139,"longitude":18.8916664},
{"country":"me","city":"petrovica do","accentcity":"Petrovica Do","region":0.0,"population":"","latitude":42.7080574,"longitude":18.7547226},
{"country":"me","city":"petrovici","accentcity":"Petrovici","region":0.0,"population":"","latitude":42.36861,"longitude":19.0119438},
{"country":"me","city":"petrovic","accentcity":"Petrovic","region":0.0,"population":"","latitude":42.74222,"longitude":18.5161114},
{"country":"me","city":"petrovo polje","accentcity":"Petrovo Polje","region":0.0,"population":"","latitude":42.77028,"longitude":19.060833},
{"country":"me","city":"peuta","accentcity":"Peuta","region":0.0,"population":"","latitude":42.46,"longitude":19.3252773},
{"country":"me","city":"pfic","accentcity":"Pfic","region":0.0,"population":"","latitude":42.64528,"longitude":19.4369431},
{"country":"me","city":"pijeva","accentcity":"Pijeva","region":0.0,"population":"","latitude":43.1086121,"longitude":19.7569447},
{"country":"me","city":"pikale","accentcity":"Pikale","region":0.0,"population":"","latitude":42.40472,"longitude":19.37861},
{"country":"me","city":"pikalja","accentcity":"Pikalja","region":0.0,"population":"","latitude":42.40472,"longitude":19.37861},
{"country":"me","city":"pikalji","accentcity":"Pikalji","region":0.0,"population":"","latitude":42.40472,"longitude":19.37861},
{"country":"me","city":"pikalj","accentcity":"Pikalj","region":0.0,"population":"","latitude":42.40472,"longitude":19.37861},
{"country":"me","city":"pilatovci","accentcity":"Pilatovci","region":0.0,"population":"","latitude":42.8555565,"longitude":18.4911118},
{"country":"me","city":"pilote","accentcity":"Pilote","region":0.0,"population":"","latitude":42.7333336,"longitude":19.4755554},
{"country":"me","city":"pincici","accentcity":"Pincici","region":0.0,"population":"","latitude":42.1405563,"longitude":19.1947212},
{"country":"me","city":"pipac","accentcity":"Pipac","region":0.0,"population":"","latitude":42.36361,"longitude":19.1080551},
{"country":"me","city":"piperi","accentcity":"Piperi","region":0.0,"population":"","latitude":42.385,"longitude":19.0647221},
{"country":"me","city":"pipoljevac","accentcity":"Pipoljevac","region":0.0,"population":"","latitude":42.39111,"longitude":18.7702789},
{"country":"me","city":"pirni do","accentcity":"Pirni Do","region":0.0,"population":"","latitude":43.1341667,"longitude":18.91639},
{"country":"me","city":"pisana jela","accentcity":"Pisana Jela","region":0.0,"population":"","latitude":43.0880547,"longitude":19.5497227},
{"country":"me","city":"pisanje","accentcity":"Pisanje","region":0.0,"population":"","latitude":42.97111,"longitude":19.8130569},
{"country":"me","city":"pisce","accentcity":"Pisce","region":0.0,"population":"","latitude":43.1566658,"longitude":18.9058323},
{"country":"me","city":"piskav do","accentcity":"Piskav Do","region":0.0,"population":"","latitude":42.564167,"longitude":19.2805557},
{"country":"me","city":"pistala","accentcity":"Pistala","region":0.0,"population":"","latitude":42.5719452,"longitude":18.8352776},
{"country":"me","city":"pisteta","accentcity":"Pisteta","region":0.0,"population":"","latitude":42.895,"longitude":18.9094448},
{"country":"me","city":"pisteti","accentcity":"Pisteti","region":0.0,"population":"","latitude":42.56222,"longitude":18.7430553},
{"country":"me","city":"pistet","accentcity":"Pistet","region":0.0,"population":"","latitude":42.56222,"longitude":18.7430553},
{"country":"me","city":"pistula","accentcity":"Pistula","region":0.0,"population":"","latitude":41.95028,"longitude":19.2541676},
{"country":"me","city":"pitoma loza","accentcity":"Pitoma Loza","region":0.0,"population":"","latitude":42.50861,"longitude":19.15361},
{"country":"me","city":"pitome doline","accentcity":"Pitome Doline","region":0.0,"population":"","latitude":42.496666,"longitude":18.89611},
{"country":"me","city":"pitomine","accentcity":"Pitomine","region":0.0,"population":"","latitude":43.16111,"longitude":19.1066666},
{"country":"me","city":"pizure","accentcity":"Pizure","region":0.0,"population":"","latitude":43.43611,"longitude":19.20139},
{"country":"me","city":"pizuri","accentcity":"Pizuri","region":0.0,"population":"","latitude":43.43611,"longitude":19.20139},
{"country":"me","city":"pjasci","accentcity":"Pjasci","region":0.0,"population":"","latitude":43.2322235,"longitude":19.5266666},
{"country":"me","city":"pjescanica","accentcity":"Pjescanica","region":0.0,"population":"","latitude":42.7875,"longitude":19.5244446},
{"country":"me","city":"pjevceva glava","accentcity":"Pjevceva Glava","region":0.0,"population":"","latitude":43.49,"longitude":19.2202778},
{"country":"me","city":"plagente","accentcity":"Plagente","region":0.0,"population":"","latitude":42.43722,"longitude":18.7669449},
{"country":"me","city":"plakala","accentcity":"Plakala","region":0.0,"population":"","latitude":43.45667,"longitude":19.0880566},
{"country":"me","city":"plakali","accentcity":"Plakali","region":0.0,"population":"","latitude":43.45667,"longitude":19.0880566},
{"country":"me","city":"plana","accentcity":"Plana","region":0.0,"population":"","latitude":42.50139,"longitude":19.1383324},
{"country":"me","city":"planinica","accentcity":"Planinica","region":0.0,"population":"","latitude":42.773056,"longitude":19.564167},
{"country":"me","city":"plani","accentcity":"Plani","region":0.0,"population":"","latitude":43.0441666,"longitude":19.7869434},
{"country":"me","city":"plansko","accentcity":"Plansko","region":0.0,"population":"","latitude":43.52361,"longitude":18.9958324},
{"country":"me","city":"plasa","accentcity":"Plasa","region":0.0,"population":"","latitude":42.707222,"longitude":19.8488884},
{"country":"me","city":"plasnica","accentcity":"Plasnica","region":0.0,"population":"","latitude":42.8633347,"longitude":19.4825},
{"country":"me","city":"plate","accentcity":"Plate","region":0.0,"population":"","latitude":42.5175,"longitude":18.8247223},
{"country":"me","city":"plave","accentcity":"Plav�","region":0.0,"population":"","latitude":42.5969429,"longitude":19.9455566},
{"country":"me","city":"plav","accentcity":"Plav","region":0.0,"population":"","latitude":42.5969429,"longitude":19.9455566},
{"country":"me","city":"plece","accentcity":"Plece","region":0.0,"population":"","latitude":42.96611,"longitude":18.5930557},
{"country":"me","city":"predojevica","accentcity":"Predojevica","region":0.0,"population":"","latitude":42.43972,"longitude":18.9916668},
{"country":"me","city":"prehari","accentcity":"Prehari","region":0.0,"population":"","latitude":43.4697227,"longitude":19.084444},
{"country":"me","city":"prekornica","accentcity":"Prekornica","region":0.0,"population":"","latitude":42.3033333,"longitude":18.9580555},
{"country":"me","city":"prelevici","accentcity":"Prelevici","region":0.0,"population":"","latitude":42.48861,"longitude":19.3983326},
{"country":"me","city":"premcani","accentcity":"Premcani","region":0.0,"population":"","latitude":43.1202774,"longitude":19.37139},
{"country":"me","city":"premici","accentcity":"Premici","region":0.0,"population":"","latitude":42.4413872,"longitude":19.36389},
{"country":"me","city":"premilici","accentcity":"Premilici","region":0.0,"population":"","latitude":42.8658333,"longitude":18.9566669},
{"country":"me","city":"prencani","accentcity":"Prencani","region":0.0,"population":"","latitude":43.1202774,"longitude":19.37139},
{"country":"me","city":"prenkaj","accentcity":"Prenkaj","region":0.0,"population":"","latitude":42.3416672,"longitude":19.3736115},
{"country":"me","city":"prentin do","accentcity":"Prentin Do","region":0.0,"population":"","latitude":42.6022224,"longitude":18.82639},
{"country":"me","city":"prentovici","accentcity":"Prentovici","region":0.0,"population":"","latitude":42.3080559,"longitude":18.89611},
{"country":"me","city":"presecenik","accentcity":"Presecenik","region":0.0,"population":"","latitude":43.0852776,"longitude":19.8208332},
{"country":"me","city":"preseka","accentcity":"Preseka","region":0.0,"population":"","latitude":42.4686127,"longitude":18.5725},
{"country":"me","city":"presjeka","accentcity":"Presjeka","region":0.0,"population":"","latitude":42.4686127,"longitude":18.5725},
{"country":"me","city":"presmenice","accentcity":"Presmenice","region":0.0,"population":"","latitude":43.4166679,"longitude":19.2216663},
{"country":"me","city":"prestreke","accentcity":"Prestreke","region":0.0,"population":"","latitude":43.0819435,"longitude":19.7727776},
{"country":"me","city":"pretrzeni do","accentcity":"Pretrzeni Do","region":0.0,"population":"","latitude":42.925,"longitude":18.6402779},
{"country":"me","city":"previna","accentcity":"Previna","region":0.0,"population":"","latitude":42.77,"longitude":19.3377781},
{"country":"me","city":"previs","accentcity":"Previs","region":0.0,"population":"","latitude":42.97861,"longitude":19.0944443},
{"country":"me","city":"prevlaka","accentcity":"Prevlaka","region":0.0,"population":"","latitude":42.3352776,"longitude":19.0986118},
{"country":"me","city":"pribakovici","accentcity":"Pribakovici","region":0.0,"population":"","latitude":43.4419441,"longitude":19.1513882},
{"country":"me","city":"pribilovice","accentcity":"Pribilovice","region":0.0,"population":"","latitude":42.96611,"longitude":19.6972218},
{"country":"me","city":"pribojevici","accentcity":"Pribojevici","region":0.0,"population":"","latitude":42.40333,"longitude":19.1094437},
{"country":"me","city":"priboj","accentcity":"Priboj","region":0.0,"population":"","latitude":42.47167,"longitude":19.28139},
{"country":"me","city":"pribranci","accentcity":"Pribranci","region":0.0,"population":"","latitude":43.1016655,"longitude":19.2741661},
{"country":"me","city":"pricelje","accentcity":"Pricelje","region":0.0,"population":"","latitude":42.505,"longitude":19.2227783},
{"country":"me","city":"pridvorica","accentcity":"Pridvorica","region":0.0,"population":"","latitude":42.96472,"longitude":19.0644436},
{"country":"me","city":"prifta","accentcity":"Prifta","region":0.0,"population":"","latitude":42.4019432,"longitude":19.3905563},
{"country":"me","city":"prifti","accentcity":"Prifti","region":0.0,"population":"","latitude":42.4019432,"longitude":19.3905563},
{"country":"me","city":"prigradina","accentcity":"Prigradina","region":0.0,"population":"","latitude":42.8225,"longitude":18.6502781},
{"country":"me","city":"prijeki do","accentcity":"Prijeki Do","region":0.0,"population":"","latitude":42.55528,"longitude":18.9202785},
{"country":"me","city":"prijeko pocivalo","accentcity":"Prijeko Pocivalo","region":0.0,"population":"","latitude":42.58389,"longitude":18.7997227},
{"country":"me","city":"prijelozi","accentcity":"Prijelozi","region":0.0,"population":"","latitude":42.9527779,"longitude":19.791111},
{"country":"me","city":"prijeradi","accentcity":"Prijeradi","region":0.0,"population":"","latitude":42.355,"longitude":18.7827778},
{"country":"me","city":"prijespa","accentcity":"Prijespa","region":0.0,"population":"","latitude":42.7280579,"longitude":18.9644432},
{"country":"me","city":"prijestrelj","accentcity":"Prijestrelj","region":0.0,"population":"","latitude":43.0491676,"longitude":19.7358322},
{"country":"me","city":"prijevorac","accentcity":"Prijevorac","region":0.0,"population":"","latitude":42.2033348,"longitude":18.9561119},
{"country":"me","city":"prijevori","accentcity":"Prijevori","region":0.0,"population":"","latitude":42.7538872,"longitude":19.02389},
{"country":"me","city":"prijevor","accentcity":"Prijevor","region":0.0,"population":"","latitude":42.2033348,"longitude":18.9561119},
{"country":"me","city":"priloge","accentcity":"Priloge","region":0.0,"population":"","latitude":42.9527779,"longitude":19.791111},
{"country":"me","city":"primet","accentcity":"Primet","region":0.0,"population":"","latitude":43.2925,"longitude":19.22889},
{"country":"me","city":"priostrelj","accentcity":"Priostrelj","region":0.0,"population":"","latitude":43.0491676,"longitude":19.7358322},
{"country":"me","city":"pripcice","accentcity":"Pripcice","region":0.0,"population":"","latitude":43.0055542,"longitude":19.7386112},
{"country":"me","city":"pripcici","accentcity":"Pripcici","region":0.0,"population":"","latitude":42.9963875,"longitude":19.7519436},
{"country":"me","city":"pripec","accentcity":"Pripec","region":0.0,"population":"","latitude":42.8983345,"longitude":20.2997227},
{"country":"me","city":"priporci","accentcity":"Priporci","region":0.0,"population":"","latitude":42.6825,"longitude":18.728611},
{"country":"me","city":"pripor","accentcity":"Pripor","region":0.0,"population":"","latitude":42.5241661,"longitude":18.8233337},
{"country":"me","city":"prisiklinac","accentcity":"Prisiklinac","region":0.0,"population":"","latitude":42.9883347,"longitude":19.4113884},
{"country":"me","city":"prisojak","accentcity":"Prisojak","region":0.0,"population":"","latitude":42.7683334,"longitude":19.3811111},
{"country":"me","city":"prisoja","accentcity":"Prisoja","region":0.0,"population":"","latitude":42.5375,"longitude":18.93861},
{"country":"me","city":"prisoje","accentcity":"Prisoje","region":0.0,"population":"","latitude":42.67889,"longitude":19.41},
{"country":"me","city":"prisoji","accentcity":"Prisoji","region":0.0,"population":"","latitude":43.5216675,"longitude":19.1705551},
{"country":"me","city":"prisojni orah","accentcity":"Prisojni Orah","region":0.0,"population":"","latitude":43.145,"longitude":18.74},
{"country":"me","city":"pristan","accentcity":"Pristan","region":0.0,"population":"","latitude":42.22972,"longitude":19.148056},
{"country":"me","city":"prnjavor","accentcity":"Prnjavor","region":0.0,"population":"","latitude":42.5980568,"longitude":19.9505558},
{"country":"me","city":"progonovici","accentcity":"Progonovici","region":0.0,"population":"","latitude":42.4308319,"longitude":19.06889},
{"country":"me","city":"prokaplje","accentcity":"Prokaplje","region":0.0,"population":"","latitude":42.48611,"longitude":19.0947227},
{"country":"me","city":"proplanci","accentcity":"Proplanci","region":0.0,"population":"","latitude":42.8447227,"longitude":18.945},
{"country":"me","city":"proscenje","accentcity":"Proscenje","region":0.0,"population":"","latitude":43.00889,"longitude":19.4894447},
{"country":"me","city":"prosce","accentcity":"Prosce","region":0.0,"population":"","latitude":43.4433327,"longitude":19.0927773},
{"country":"me","city":"proseni do","accentcity":"Proseni Do","region":0.0,"population":"","latitude":42.53,"longitude":18.8544445},
{"country":"me","city":"prosica","accentcity":"Prosica","region":0.0,"population":"","latitude":42.55722,"longitude":19.5858326},
{"country":"me","city":"provalija","accentcity":"Provalija","region":0.0,"population":"","latitude":43.064167,"longitude":19.1136112},
{"country":"me","city":"provalije","accentcity":"Provalije","region":0.0,"population":"","latitude":43.064167,"longitude":19.1136112},
{"country":"me","city":"divanovici","accentcity":"Divanovici","region":0.0,"population":"","latitude":42.27611,"longitude":18.89},
{"country":"me","city":"�ivorad","accentcity":"�ivorad","region":0.0,"population":"","latitude":42.8608322,"longitude":19.4472218},
{"country":"me","city":"dizdarev do","accentcity":"Dizdarev Do","region":0.0,"population":"","latitude":42.52222,"longitude":18.47889},
{"country":"me","city":"djecbitrici","accentcity":"Djecbitrici","region":0.0,"population":"","latitude":42.0747223,"longitude":19.3341675},
{"country":"me","city":"djenovici","accentcity":"Djenovici","region":0.0,"population":"","latitude":42.4369431,"longitude":18.6022224},
{"country":"me","city":"djevojacki do","accentcity":"Djevojacki Do","region":0.0,"population":"","latitude":42.74361,"longitude":18.644722},
{"country":"me","city":"djurasevici","accentcity":"Djurasevici","region":0.0,"population":"","latitude":42.394722,"longitude":18.6883335},
{"country":"me","city":"do adzica","accentcity":"Do Adzica","region":0.0,"population":"","latitude":42.7530556,"longitude":19.5694447},
{"country":"me","city":"doberdol","accentcity":"Dob�rdol","region":0.0,"population":"","latitude":42.96472,"longitude":19.9969444},
{"country":"me","city":"dobra gora","accentcity":"Dobra Gora","region":0.0,"population":"","latitude":42.5744438,"longitude":18.7997227},
{"country":"me","city":"dobrakovo","accentcity":"Dobrakovo","region":0.0,"population":"","latitude":43.1394424,"longitude":19.7744446},
{"country":"me","city":"dobra sela","accentcity":"Dobra Sela","region":0.0,"population":"","latitude":42.96472,"longitude":19.1094437},
{"country":"me","city":"dobra voda","accentcity":"Dobra Voda","region":0.0,"population":"","latitude":42.04889,"longitude":19.1438885},
{"country":"me","city":"dobrcin","accentcity":"Dobrcin","region":0.0,"population":"","latitude":42.4094429,"longitude":19.43861},
{"country":"me","city":"dobrdoli","accentcity":"Dobrdoli","region":0.0,"population":"","latitude":42.96472,"longitude":19.9969444},
{"country":"me","city":"dobrdsko selo","accentcity":"Dobrdsko Selo","region":0.0,"population":"","latitude":42.3794441,"longitude":18.9644432},
{"country":"me","city":"dobreci","accentcity":"Dobreci","region":0.0,"population":"","latitude":42.123333,"longitude":19.2208328},
{"country":"me","city":"dobre vode","accentcity":"Dobre Vode","region":0.0,"population":"","latitude":43.0808334,"longitude":19.7322216},
{"country":"me","city":"dobri do","accentcity":"Dobri Do","region":0.0,"population":"","latitude":42.5955544,"longitude":19.23361},
{"country":"me","city":"dobrilovici","accentcity":"Dobrilovici","region":0.0,"population":"","latitude":43.1627769,"longitude":18.8911114},
{"country":"me","city":"dobrilovina","accentcity":"Dobrilovina","region":0.0,"population":"","latitude":43.03361,"longitude":19.3863888},
{"country":"me","city":"dobri lug","accentcity":"Dobri Lug","region":0.0,"population":"","latitude":42.71111,"longitude":19.39139},
{"country":"me","city":"dobrinje","accentcity":"Dobrinje","region":0.0,"population":"","latitude":43.15139,"longitude":19.7197227},
{"country":"me","city":"dobri nugo","accentcity":"Dobri Nugo","region":0.0,"population":"","latitude":43.0958328,"longitude":19.2022228},
{"country":"me","city":"dobro brdo","accentcity":"Dobro Brdo","region":0.0,"population":"","latitude":43.12639,"longitude":19.715},
{"country":"me","city":"dobrodo","accentcity":"Dobrodo","region":0.0,"population":"","latitude":42.8969421,"longitude":19.27},
{"country":"me","city":"dobrodol","accentcity":"Dobrodol","region":0.0,"population":"","latitude":42.96472,"longitude":19.9969444},
{"country":"me","city":"dobrodole","accentcity":"Dobrodole","region":0.0,"population":"","latitude":42.96472,"longitude":19.9969444},
{"country":"me","city":"dobronez do","accentcity":"Dobronez Do","region":0.0,"population":"","latitude":42.5380554,"longitude":18.7863884},
{"country":"me","city":"dobronjez do","accentcity":"Dobronjez Do","region":0.0,"population":"","latitude":42.5380554,"longitude":18.7863884},
{"country":"me","city":"dobro polje","accentcity":"Dobro Polje","region":0.0,"population":"","latitude":42.6352768,"longitude":19.0263882},
{"country":"me","city":"dobroseoska merulja","accentcity":"Dobroseoska Merulja","region":0.0,"population":"","latitude":43.0722237,"longitude":19.165},
{"country":"me","city":"dobrota","accentcity":"Dobrota","region":0.0,"population":"","latitude":42.4541664,"longitude":18.7683334},
{"country":"me","city":"dobrovoljici","accentcity":"Dobrovoljici","region":0.0,"population":"","latitude":42.7816658,"longitude":19.0525},
{"country":"me","city":"dobrska zupa","accentcity":"Dobrska Zupa","region":0.0,"population":"","latitude":42.39389,"longitude":19.05139},
{"country":"me","city":"dobrsko","accentcity":"Dobrsko","region":0.0,"population":"","latitude":42.3794441,"longitude":18.9644432},
{"country":"me","city":"dobrsko selo","accentcity":"Dobrsko Selo","region":0.0,"population":"","latitude":42.3794441,"longitude":18.9644432},
{"country":"me","city":"dobrus","accentcity":"Dobrus","region":0.0,"population":"","latitude":42.6555557,"longitude":18.9669437},
{"country":"me","city":"docici","accentcity":"Docici","region":0.0,"population":"","latitude":42.7016678,"longitude":18.7427788},
{"country":"me","city":"doderovici","accentcity":"Doderovici","region":0.0,"population":"","latitude":43.1772232,"longitude":18.6702785},
{"country":"me","city":"dodici","accentcity":"Dodici","region":0.0,"population":"","latitude":42.0719452,"longitude":19.3427773},
{"country":"me","city":"do","accentcity":"Do","region":0.0,"population":"","latitude":43.04111,"longitude":18.7397213},
{"country":"me","city":"dodosi","accentcity":"Dodosi","region":0.0,"population":"","latitude":42.3291664,"longitude":19.1363888},
{"country":"me","city":"dojcin do","accentcity":"Dojcin Do","region":0.0,"population":"","latitude":42.6530571,"longitude":18.8175},
{"country":"me","city":"doknica dolovi","accentcity":"Doknica Dolovi","region":0.0,"population":"","latitude":42.9847221,"longitude":18.7338886},
{"country":"me","city":"dolac","accentcity":"Dolac","region":0.0,"population":"","latitude":42.84667,"longitude":19.8527775},
{"country":"me","city":"dolenji lovnica","accentcity":"Dolenji Lovnica","region":0.0,"population":"","latitude":42.8705559,"longitude":20.13889},
{"country":"me","city":"dolina","accentcity":"Dolina","region":0.0,"population":"","latitude":42.9052773,"longitude":20.146944},
{"country":"me","city":"doline","accentcity":"Doline","region":0.0,"population":"","latitude":43.24389,"longitude":19.4558334},
{"country":"me","city":"dolinice","accentcity":"Dolinice","region":0.0,"population":"","latitude":42.7408333,"longitude":19.3361111},
{"country":"me","city":"dolja","accentcity":"Dolja","region":0.0,"population":"","latitude":42.5375,"longitude":19.7947216},
{"country":"me","city":"doljan","accentcity":"Doljan","region":0.0,"population":"","latitude":42.46389,"longitude":19.3075},
{"country":"me","city":"doljane","accentcity":"Doljane","region":0.0,"population":"","latitude":42.37,"longitude":19.1027775},
{"country":"me","city":"doljani","accentcity":"Doljani","region":0.0,"population":"","latitude":42.46389,"longitude":19.3075},
{"country":"me","city":"dolma","accentcity":"Dolma","region":0.0,"population":"","latitude":42.9052773,"longitude":20.146944},
{"country":"me","city":"dolovi","accentcity":"Dolovi","region":0.0,"population":"","latitude":42.3775,"longitude":18.8222218},
{"country":"me","city":"dolovi kovacki","accentcity":"Dolovi Kovacki","region":0.0,"population":"","latitude":42.5883331,"longitude":19.1658325},
{"country":"me","city":"dolovsko korito","accentcity":"Dolovsko Korito","region":0.0,"population":"","latitude":42.5833321,"longitude":18.875},
{"country":"me","city":"�onca","accentcity":"�onca","region":0.0,"population":"","latitude":42.6972237,"longitude":19.8},
{"country":"me","city":"dondici","accentcity":"Dondici","region":0.0,"population":"","latitude":43.1780548,"longitude":18.9077778},
{"country":"me","city":"donja bijela","accentcity":"Donja Bijela","region":0.0,"population":"","latitude":42.9141655,"longitude":19.1291676},
{"country":"me","city":"donja brezna","accentcity":"Donja Brezna","region":0.0,"population":"","latitude":42.9955559,"longitude":18.9047222},
{"country":"me","city":"donja brezojevica","accentcity":"Donja Brezojevica","region":0.0,"population":"","latitude":42.6255569,"longitude":19.9266663},
{"country":"me","city":"donja brezovica","accentcity":"Donja Brezovica","region":0.0,"population":"","latitude":42.6255569,"longitude":19.9266663},
{"country":"me","city":"glisnica","accentcity":"Glisnica","region":0.0,"population":"","latitude":43.4063873,"longitude":19.2080555},
{"country":"me","city":"glisovici","accentcity":"Glisovici","region":0.0,"population":"","latitude":43.1969452,"longitude":18.9127789},
{"country":"me","city":"glizica","accentcity":"Glizica","region":0.0,"population":"","latitude":42.56111,"longitude":19.1791668},
{"country":"me","city":"glogovik","accentcity":"Glogovik","region":0.0,"population":"","latitude":42.4619446,"longitude":18.5980568},
{"country":"me","city":"gluhi do","accentcity":"Gluhi Do","region":0.0,"population":"","latitude":42.2,"longitude":19.0477772},
{"country":"me","city":"gluscevina","accentcity":"Gluscevina","region":0.0,"population":"","latitude":42.7811127,"longitude":18.5563889},
{"country":"me","city":"glusje selo","accentcity":"Glusje Selo","region":0.0,"population":"","latitude":42.7419434,"longitude":19.0583324},
{"country":"me","city":"gluvcev do","accentcity":"Gluvcev Do","region":0.0,"population":"","latitude":42.5727768,"longitude":19.3841667},
{"country":"me","city":"gnevi do","accentcity":"Gnevi Do","region":0.0,"population":"","latitude":42.41389,"longitude":18.92361},
{"country":"me","city":"gnjijevi do","accentcity":"Gnjijevi Do","region":0.0,"population":"","latitude":42.41389,"longitude":18.92361},
{"country":"me","city":"gnjilavi do","accentcity":"Gnjilavi Do","region":0.0,"population":"","latitude":42.92,"longitude":18.5916672},
{"country":"me","city":"gnjili potok","accentcity":"Gnjili Potok","region":0.0,"population":"","latitude":42.7452774,"longitude":19.7177773},
{"country":"me","city":"gobovici","accentcity":"Gobovici","region":0.0,"population":"","latitude":42.36972,"longitude":18.7241669},
{"country":"me","city":"goden","accentcity":"Goden","region":0.0,"population":"","latitude":42.495,"longitude":18.9038887},
{"country":"me","city":"godijelja","accentcity":"Godijelja","region":0.0,"population":"","latitude":42.9961128,"longitude":19.0852776},
{"country":"me","city":"godijelji","accentcity":"Godijelji","region":0.0,"population":"","latitude":42.9961128,"longitude":19.0852776},
{"country":"me","city":"godijevo","accentcity":"Godijevo","region":0.0,"population":"","latitude":43.0,"longitude":19.895},
{"country":"me","city":"godinje","accentcity":"Godinje","region":0.0,"population":"","latitude":42.22139,"longitude":19.1105556},
{"country":"me","city":"godocelje","accentcity":"Godocelje","region":0.0,"population":"","latitude":42.9158325,"longitude":19.9430561},
{"country":"me","city":"godusa","accentcity":"Godusa","region":0.0,"population":"","latitude":42.9669456,"longitude":19.9397221},
{"country":"me","city":"gogici","accentcity":"Gogici","region":0.0,"population":"","latitude":43.3816681,"longitude":19.31139},
{"country":"me","city":"gogosi","accentcity":"Gogosi","region":0.0,"population":"","latitude":42.3277779,"longitude":19.0633335},
{"country":"me","city":"gojakovici","accentcity":"Gojakovici","region":0.0,"population":"","latitude":42.99361,"longitude":19.4819431},
{"country":"me","city":"gojevici","accentcity":"Gojevici","region":0.0,"population":"","latitude":42.935833,"longitude":19.8627777},
{"country":"me","city":"gojkovic","accentcity":"Gojkovic","region":0.0,"population":"","latitude":42.50722,"longitude":18.49639},
{"country":"me","city":"gojkovici","accentcity":"Gojkovici","region":0.0,"population":"","latitude":42.50722,"longitude":18.49639},
{"country":"me","city":"gola strana","accentcity":"Gola Strana","region":0.0,"population":"","latitude":42.5158348,"longitude":19.2391663},
{"country":"me","city":"golemadi","accentcity":"Golemadi","region":0.0,"population":"","latitude":42.3869438,"longitude":19.14889},
{"country":"me","city":"golijski stozi","accentcity":"Golijski Stozi","region":0.0,"population":"","latitude":42.96639,"longitude":18.7725},
{"country":"me","city":"goljemadi","accentcity":"Goljemadi","region":0.0,"population":"","latitude":42.3869438,"longitude":19.14889},
{"country":"me","city":"golocevci","accentcity":"Golocevci","region":0.0,"population":"","latitude":43.3416672,"longitude":19.3016663},
{"country":"me","city":"golubinja","accentcity":"Golubinja","region":0.0,"population":"","latitude":43.3591652,"longitude":19.3869438},
{"country":"me","city":"golubinjak","accentcity":"Golubinjak","region":0.0,"population":"","latitude":43.06972,"longitude":19.5},
{"country":"me","city":"golubinje","accentcity":"Golubinje","region":0.0,"population":"","latitude":42.7322235,"longitude":18.7677784},
{"country":"me","city":"golubni do","accentcity":"Golubni Do","region":0.0,"population":"","latitude":42.96639,"longitude":18.6877785},
{"country":"me","city":"golubovci","accentcity":"Golubovci","region":0.0,"population":"","latitude":42.335,"longitude":19.2311115},
{"country":"me","city":"golubovici","accentcity":"Golubovici","region":0.0,"population":"","latitude":42.189167,"longitude":18.9877777},
{"country":"me","city":"goluzba","accentcity":"Goluzba","region":0.0,"population":"","latitude":42.42,"longitude":19.2061119},
{"country":"me","city":"gomila","accentcity":"Gomila","region":0.0,"population":"","latitude":42.29333,"longitude":18.7955551},
{"country":"me","city":"gomile","accentcity":"Gomile","region":0.0,"population":"","latitude":42.4277763,"longitude":19.0369434},
{"country":"me","city":"gomilice","accentcity":"Gomilice","region":0.0,"population":"","latitude":42.47639,"longitude":18.8211117},
{"country":"me","city":"goransko","accentcity":"Goransko","region":0.0,"population":"","latitude":43.1194458,"longitude":18.8302784},
{"country":"me","city":"gorazde","accentcity":"Gorazde","region":0.0,"population":"","latitude":42.8841667,"longitude":19.91639},
{"country":"me","city":"gorica","accentcity":"Gorica","region":0.0,"population":"","latitude":42.29333,"longitude":18.7955551},
{"country":"me","city":"goricani","accentcity":"Goricani","region":0.0,"population":"","latitude":42.332222,"longitude":19.2119446},
{"country":"me","city":"gorice","accentcity":"Gorice","region":0.0,"population":"","latitude":43.19583,"longitude":19.5316677},
{"country":"me","city":"gorin do","accentcity":"Gorin Do","region":0.0,"population":"","latitude":42.501667,"longitude":18.7955551},
{"country":"me","city":"gornic","accentcity":"Gornic","region":0.0,"population":"","latitude":42.38389,"longitude":18.8891678},
{"country":"me","city":"gornja bijela","accentcity":"Gornja Bijela","region":0.0,"population":"","latitude":42.90222,"longitude":19.155},
{"country":"me","city":"gornja brevenica","accentcity":"Gornja Brevenica","region":0.0,"population":"","latitude":43.3786125,"longitude":19.2352772},
{"country":"me","city":"gornja brezna","accentcity":"Gornja Brezna","region":0.0,"population":"","latitude":42.9855576,"longitude":18.9655552},
{"country":"me","city":"gornja briska","accentcity":"Gornja Briska","region":0.0,"population":"","latitude":42.115,"longitude":19.2194443},
{"country":"me","city":"gornja brova","accentcity":"Gornja Brova","region":0.0,"population":"","latitude":42.37639,"longitude":19.0288887},
{"country":"me","city":"gornja brvenica","accentcity":"Gornja Brvenica","region":0.0,"population":"","latitude":43.3786125,"longitude":19.2352772},
{"country":"me","city":"gornja bukovica","accentcity":"Gornja Bukovica","region":0.0,"population":"","latitude":43.0366669,"longitude":19.1377773},
{"country":"me","city":"gornja crnca","accentcity":"Gornja Crnca","region":0.0,"population":"","latitude":42.91722,"longitude":20.30611},
{"country":"me","city":"gornja cuka","accentcity":"Gornja Cuka","region":0.0,"population":"","latitude":42.7333336,"longitude":19.70861},
{"country":"me","city":"gornja dobrilovina","accentcity":"Gornja Dobrilovina","region":0.0,"population":"","latitude":43.0219421,"longitude":19.4008331},
{"country":"me","city":"gornja drazevina","accentcity":"Gornja Drazevina","region":0.0,"population":"","latitude":42.43111,"longitude":19.135},
{"country":"me","city":"gornja dubova","accentcity":"Gornja Dubova","region":0.0,"population":"","latitude":42.3297234,"longitude":19.0147228},
{"country":"me","city":"gornja glizica","accentcity":"Gornja Glizica","region":0.0,"population":"","latitude":42.56389,"longitude":19.1802788},
{"country":"me","city":"gornja gorica","accentcity":"Gornja Gorica","region":0.0,"population":"","latitude":42.43861,"longitude":19.2158337},
{"country":"me","city":"gornja grabovica","accentcity":"Gornja Grabovica","region":0.0,"population":"","latitude":43.02778,"longitude":19.0861111},
{"country":"me","city":"gornja ibrija","accentcity":"Gornja Ibrija","region":0.0,"population":"","latitude":42.7605553,"longitude":19.355278},
{"country":"me","city":"jaz","accentcity":"Jaz","region":0.0,"population":"","latitude":42.2816658,"longitude":18.8002777},
{"country":"me","city":"jecmista","accentcity":"Jecmista","region":0.0,"population":"","latitude":42.7833328,"longitude":19.0580559},
{"country":"me","city":"jedini bor","accentcity":"Jedini Bor","region":0.0,"population":"","latitude":42.6127777,"longitude":18.7752781},
{"country":"me","city":"jela","accentcity":"Jela","region":0.0,"population":"","latitude":42.835556,"longitude":19.3525},
{"country":"me","city":"jelenak","accentcity":"Jelenak","region":0.0,"population":"","latitude":42.565834,"longitude":19.1511116},
{"country":"me","city":"jelenjak","accentcity":"Jelenjak","region":0.0,"population":"","latitude":42.735,"longitude":19.6380558},
{"country":"me","city":"jelica dolina","accentcity":"Jelica Dolina","region":0.0,"population":"","latitude":42.9497223,"longitude":19.2241669},
{"country":"me","city":"jelica doline","accentcity":"Jelica Doline","region":0.0,"population":"","latitude":43.0975,"longitude":19.5752773},
{"country":"me","city":"jelici","accentcity":"Jelici","region":0.0,"population":"","latitude":42.7822227,"longitude":18.6308327},
{"country":"me","city":"jelina gora","accentcity":"Jelina Gora","region":0.0,"population":"","latitude":43.0513878,"longitude":19.3644447},
{"country":"me","city":"jelin dub","accentcity":"Jelin Dub","region":0.0,"population":"","latitude":42.5280571,"longitude":19.3555565},
{"country":"me","city":"jelovac","accentcity":"Jelovac","region":0.0,"population":"","latitude":43.2472229,"longitude":19.5047226},
{"country":"me","city":"jelovica","accentcity":"Jelovica","region":0.0,"population":"","latitude":42.8625,"longitude":18.6544437},
{"country":"me","city":"jelovi do","accentcity":"Jelovi Do","region":0.0,"population":"","latitude":42.559166,"longitude":18.6194439},
{"country":"me","city":"jelovi kraj","accentcity":"Jelovi Kraj","region":0.0,"population":"","latitude":43.1305542,"longitude":19.5630569},
{"country":"me","city":"jelov kraj","accentcity":"Jelov Kraj","region":0.0,"population":"","latitude":43.1305542,"longitude":19.5630569},
{"country":"me","city":"jelovo zdrijelo","accentcity":"Jelovo Zdrijelo","region":0.0,"population":"","latitude":42.9255562,"longitude":18.5472221},
{"country":"me","city":"jelov panj","accentcity":"Jelov Panj","region":0.0,"population":"","latitude":43.27639,"longitude":19.1141663},
{"country":"me","city":"jerenici","accentcity":"Jerenici","region":0.0,"population":"","latitude":43.2769432,"longitude":18.9069443},
{"country":"me","city":"jerinici","accentcity":"Jerinici","region":0.0,"population":"","latitude":43.2769432,"longitude":18.9069443},
{"country":"me","city":"jestrin do","accentcity":"Jestrin Do","region":0.0,"population":"","latitude":42.55417,"longitude":18.71889},
{"country":"me","city":"jezerca","accentcity":"Jezerca","region":0.0,"population":"","latitude":42.6369438,"longitude":18.7836113},
{"country":"me","city":"jezer","accentcity":"Jezer","region":0.0,"population":"","latitude":42.4925,"longitude":18.8041668},
{"country":"me","city":"jezero","accentcity":"Jezero","region":0.0,"population":"","latitude":43.4630547,"longitude":19.1952782},
{"country":"me","city":"jezevic","accentcity":"Jezevic","region":0.0,"population":"","latitude":42.5038872,"longitude":18.748333},
{"country":"me","city":"jodole","accentcity":"Jodole","region":0.0,"population":"","latitude":42.8905563,"longitude":19.9213886},
{"country":"me","city":"johovac","accentcity":"Johovac","region":0.0,"population":"","latitude":43.1344452,"longitude":19.7202778},
{"country":"me","city":"johovice","accentcity":"Johovice","region":0.0,"population":"","latitude":42.9127769,"longitude":19.9563885},
{"country":"me","city":"josa","accentcity":"Josa","region":0.0,"population":"","latitude":42.9877777,"longitude":19.7647228},
{"country":"me","city":"josanica","accentcity":"Josanica","region":0.0,"population":"","latitude":42.689167,"longitude":19.7175},
{"country":"me","city":"josica","accentcity":"Josica","region":0.0,"population":"","latitude":42.46583,"longitude":18.6633339},
{"country":"me","city":"josice","accentcity":"Josice","region":0.0,"population":"","latitude":42.46583,"longitude":18.6633339},
{"country":"me","city":"josovici","accentcity":"Josovici","region":0.0,"population":"","latitude":43.38333,"longitude":19.305},
{"country":"me","city":"jovanovici","accentcity":"Jovanovici","region":0.0,"population":"","latitude":42.60361,"longitude":19.1175},
{"country":"me","city":"jovici","accentcity":"Jovici","region":0.0,"population":"","latitude":43.2633324,"longitude":19.1616669},
{"country":"me","city":"jovicina voda","accentcity":"Jovicina Voda","region":0.0,"population":"","latitude":42.61639,"longitude":18.6452789},
{"country":"me","city":"jovov do","accentcity":"Jovov Do","region":0.0,"population":"","latitude":42.9794426,"longitude":18.5908337},
{"country":"me","city":"jugovici","accentcity":"Jugovici","region":0.0,"population":"","latitude":42.7208328,"longitude":19.0888882},
{"country":"me","city":"jugovine","accentcity":"Jugovine","region":0.0,"population":"","latitude":42.81778,"longitude":19.8169441},
{"country":"me","city":"jugovo","accentcity":"Jugovo","region":0.0,"population":"","latitude":43.4030571,"longitude":19.3272228},
{"country":"me","city":"junca do","accentcity":"Junca Do","region":0.0,"population":"","latitude":43.1483345,"longitude":19.1336117},
{"country":"me","city":"juncev do","accentcity":"Juncev Do","region":0.0,"population":"","latitude":43.1483345,"longitude":19.1336117},
{"country":"me","city":"juncevici","accentcity":"Juncevici","region":0.0,"population":"","latitude":42.48111,"longitude":18.5697212},
{"country":"me","city":"kabala","accentcity":"Kabala","region":0.0,"population":"","latitude":42.4241676,"longitude":18.5627785},
{"country":"me","city":"kacak","accentcity":"Kacak","region":0.0,"population":"","latitude":43.4822235,"longitude":19.1502781},
{"country":"me","city":"kacanik","accentcity":"Kacanik","region":0.0,"population":"","latitude":42.56139,"longitude":19.8180561},
{"country":"me","city":"kacara","accentcity":"Kacara","region":0.0,"population":"","latitude":42.940834,"longitude":20.1869431},
{"country":"me","city":"kacari","accentcity":"Kacari","region":0.0,"population":"","latitude":42.940834,"longitude":20.1869431},
{"country":"me","city":"kacmor","accentcity":"Kacmor","region":0.0,"population":"","latitude":42.95778,"longitude":19.8302784},
{"country":"me","city":"kacunica","accentcity":"Kacunica","region":0.0,"population":"","latitude":42.53278,"longitude":18.4544449},
{"country":"me","city":"kacuni do","accentcity":"Kacuni Do","region":0.0,"population":"","latitude":42.61972,"longitude":19.4252777},
{"country":"me","city":"kadarusa","accentcity":"Kadarusa","region":0.0,"population":"","latitude":42.3441658,"longitude":18.9444447},
{"country":"me","city":"kajabeg","accentcity":"Kajabeg","region":0.0,"population":"","latitude":43.12528,"longitude":19.7533321},
{"country":"me","city":"kajevici","accentcity":"Kajevici","region":0.0,"population":"","latitude":42.8883324,"longitude":20.30861},
{"country":"me","city":"kajos","accentcity":"Kajos","region":0.0,"population":"","latitude":42.4127769,"longitude":19.3497219},
{"country":"me","city":"kakmuze","accentcity":"Kakmuze","region":0.0,"population":"","latitude":43.2886124,"longitude":19.2277775},
{"country":"me","city":"kakmuzi","accentcity":"Kakmuzi","region":0.0,"population":"","latitude":43.2886124,"longitude":19.2277775},
{"country":"me","city":"kalace","accentcity":"Kalace","region":0.0,"population":"","latitude":42.8594437,"longitude":20.09389},
{"country":"me","city":"kalac","accentcity":"Kalac","region":0.0,"population":"","latitude":42.6725,"longitude":19.3486118},
{"country":"me","city":"kalacka prodo","accentcity":"Kalacka Prodo","region":0.0,"population":"","latitude":42.6213875,"longitude":18.7172222},
{"country":"me","city":"kalezici","accentcity":"Kalezici","region":0.0,"population":"","latitude":42.5991669,"longitude":19.1097221},
{"country":"me","city":"kalica","accentcity":"Kalica","region":0.0,"population":"","latitude":42.8902779,"longitude":20.0372219},
{"country":"me","city":"kaliman","accentcity":"Kaliman","region":0.0,"population":"","latitude":42.0305557,"longitude":19.2469444},
{"country":"me","city":"kalipolje","accentcity":"Kalipolje","region":0.0,"population":"","latitude":43.2166672,"longitude":19.45111},
{"country":"me","city":"krece","accentcity":"Krece","region":0.0,"population":"","latitude":43.5316658,"longitude":19.1897221},
{"country":"me","city":"krejovina","accentcity":"Krejovina","region":0.0,"population":"","latitude":43.3638878,"longitude":19.31139},
{"country":"me","city":"kremes","accentcity":"Kremes","region":0.0,"population":"","latitude":42.72139,"longitude":19.365},
{"country":"me","city":"krenza","accentcity":"Krenza","region":0.0,"population":"","latitude":42.4519424,"longitude":19.3936119},
{"country":"me","city":"kricanje","accentcity":"Kricanje","region":0.0,"population":"","latitude":42.7408333,"longitude":19.4744434},
{"country":"me","city":"krijesterovina","accentcity":"Krijesterovina","region":0.0,"population":"","latitude":43.22028,"longitude":19.31139},
{"country":"me","city":"krimovica","accentcity":"Krimovica","region":0.0,"population":"","latitude":42.29111,"longitude":18.76111},
{"country":"me","city":"krimovice","accentcity":"Krimovice","region":0.0,"population":"","latitude":42.29111,"longitude":18.76111},
{"country":"me","city":"krivaca","accentcity":"Krivaca","region":0.0,"population":"","latitude":42.5525,"longitude":19.2547226},
{"country":"me","city":"krivace","accentcity":"Krivace","region":0.0,"population":"","latitude":42.6641655,"longitude":19.9055557},
{"country":"me","city":"krivac","accentcity":"Krivac","region":0.0,"population":"","latitude":42.6055565,"longitude":19.1408329},
{"country":"me","city":"kriva ploca","accentcity":"Kriva Ploca","region":0.0,"population":"","latitude":42.5872231,"longitude":19.1347218},
{"country":"me","city":"krivi do","accentcity":"Krivi Do","region":0.0,"population":"","latitude":42.6502762,"longitude":19.4480553},
{"country":"me","city":"krivodo","accentcity":"Krivodo","region":0.0,"population":"","latitude":42.68139,"longitude":18.6147213},
{"country":"me","city":"krivolaze","accentcity":"Krivolaze","region":0.0,"population":"","latitude":42.9344444,"longitude":19.87389},
{"country":"me","city":"krizevac","accentcity":"Krizevac","region":0.0,"population":"","latitude":43.32389,"longitude":18.8938885},
{"country":"me","city":"krkor","accentcity":"Krkor","region":0.0,"population":"","latitude":42.6436119,"longitude":19.4502773},
{"country":"me","city":"krlje","accentcity":"Krlje","region":0.0,"population":"","latitude":42.92139,"longitude":19.8491669},
{"country":"me","city":"krna jela","accentcity":"Krna Jela","region":0.0,"population":"","latitude":42.6361122,"longitude":18.63861},
{"country":"me","city":"krnjaca","accentcity":"Krnjaca","region":0.0,"population":"","latitude":42.69278,"longitude":19.7908325},
{"country":"me","city":"krnjac","accentcity":"Krnjac","region":0.0,"population":"","latitude":42.69278,"longitude":19.7908325},
{"country":"me","city":"krnja jela","accentcity":"Krnja Jela","region":0.0,"population":"","latitude":42.92139,"longitude":19.2925},
{"country":"me","city":"krnja","accentcity":"Krnja","region":0.0,"population":"","latitude":43.4858322,"longitude":19.2275},
{"country":"me","city":"krnjan","accentcity":"Krnjan","region":0.0,"population":"","latitude":42.47861,"longitude":19.31361},
{"country":"me","city":"krnjevina","accentcity":"Krnjevina","region":0.0,"population":"","latitude":43.37389,"longitude":19.2527771},
{"country":"me","city":"krnjice","accentcity":"Krnjice","region":0.0,"population":"","latitude":42.21389,"longitude":19.1775},
{"country":"me","city":"krnjin do","accentcity":"Krnjin Do","region":0.0,"population":"","latitude":42.7594452,"longitude":18.6322212},
{"country":"me","city":"krnulic","accentcity":"Krnulic","region":0.0,"population":"","latitude":42.71528,"longitude":18.86139},
{"country":"me","city":"krokocevo","accentcity":"Krokocevo","region":0.0,"population":"","latitude":43.06028,"longitude":19.7219448},
{"country":"me","city":"krosa","accentcity":"Krosa","region":0.0,"population":"","latitude":42.5716667,"longitude":19.4622211},
{"country":"me","city":"krsane","accentcity":"Krsane","region":0.0,"population":"","latitude":43.13861,"longitude":19.5619431},
{"country":"me","city":"krsanje","accentcity":"Krsanje","region":0.0,"population":"","latitude":43.13861,"longitude":19.5619431},
{"country":"me","city":"krseva","accentcity":"Krseva","region":0.0,"population":"","latitude":42.3925,"longitude":19.3627777},
{"country":"me","city":"krsevo","accentcity":"Krsevo","region":0.0,"population":"","latitude":42.3925,"longitude":19.3627777},
{"country":"me","city":"krs femica","accentcity":"Krs Femica","region":0.0,"population":"","latitude":42.9755554,"longitude":19.795},
{"country":"me","city":"krs","accentcity":"Krs","region":0.0,"population":"","latitude":42.7180557,"longitude":19.8488884},
{"country":"me","city":"krsnica","accentcity":"Krsnica","region":0.0,"population":"","latitude":43.21361,"longitude":19.63},
{"country":"me","city":"krstaca","accentcity":"Krstaca","region":0.0,"population":"","latitude":42.7025,"longitude":18.7194443},
{"country":"me","city":"krstace","accentcity":"Krstace","region":0.0,"population":"","latitude":42.5672226,"longitude":18.6319447},
{"country":"me","city":"krstaci","accentcity":"Krstaci","region":0.0,"population":"","latitude":43.1466675,"longitude":19.6219444},
{"country":"me","city":"krstac","accentcity":"Krstac","region":0.0,"population":"","latitude":42.22139,"longitude":18.9113884},
{"country":"me","city":"krstasi","accentcity":"Krstasi","region":0.0,"population":"","latitude":43.4519424,"longitude":19.23639},
{"country":"me","city":"krstas","accentcity":"Krstas","region":0.0,"population":"","latitude":42.9805565,"longitude":19.7947216},
{"country":"me","city":"krstata dola","accentcity":"Krstata Dola","region":0.0,"population":"","latitude":42.8883324,"longitude":18.98611},
{"country":"me","city":"krstau","accentcity":"Krstau","region":0.0,"population":"","latitude":43.0055542,"longitude":18.6980553},
{"country":"me","city":"krst","accentcity":"Krst","region":0.0,"population":"","latitude":43.47028,"longitude":19.2005558},
{"country":"me","city":"krstovace","accentcity":"Krstovace","region":0.0,"population":"","latitude":42.7575,"longitude":19.041111},
{"country":"me","city":"krtine","accentcity":"Krtine","region":0.0,"population":"","latitude":42.9058342,"longitude":18.5830555},
{"country":"me","city":"krtoli","accentcity":"Krtoli","region":0.0,"population":"","latitude":42.3975,"longitude":18.6722221},
{"country":"me","city":"kruce","accentcity":"Kruce","region":0.0,"population":"","latitude":41.98,"longitude":19.1741676},
{"country":"me","city":"kruci","accentcity":"Kruci","region":0.0,"population":"","latitude":41.98,"longitude":19.1741676},
{"country":"me","city":"kruge","accentcity":"Kruge","region":0.0,"population":"","latitude":42.5397224,"longitude":18.8225},
{"country":"me","city":"krug","accentcity":"Krug","region":0.0,"population":"","latitude":42.56028,"longitude":18.8644447},
{"country":"me","city":"kruosa","accentcity":"Kruosa","region":0.0,"population":"","latitude":42.5716667,"longitude":19.4622211},
{"country":"me","city":"krupice","accentcity":"Krupice","region":0.0,"population":"","latitude":43.121666,"longitude":19.4380569},
{"country":"me","city":"kruscica","accentcity":"Kruscica","region":0.0,"population":"","latitude":42.45361,"longitude":19.3783321},
{"country":"me","city":"kruscice","accentcity":"Kruscice","region":0.0,"population":"","latitude":43.19,"longitude":19.5647221},
{"country":"me","city":"kruse","accentcity":"Kruse","region":0.0,"population":"","latitude":42.4333344,"longitude":19.1525},
{"country":"me","city":"krusevac","accentcity":"Krusevac","region":0.0,"population":"","latitude":42.4430542,"longitude":19.2402782},
{"country":"me","city":"krusev do","accentcity":"Krusev Do","region":0.0,"population":"","latitude":43.0247231,"longitude":19.77111},
{"country":"me","city":"krusevica","accentcity":"Krusevica","region":0.0,"population":"","latitude":42.21528,"longitude":18.9505558},
{"country":"me","city":"krusevice","accentcity":"Krusevice","region":0.0,"population":"","latitude":42.47167,"longitude":18.6422215},
{"country":"me","city":"krusevi do","accentcity":"Krusevi Do","region":0.0,"population":"","latitude":42.55389,"longitude":18.7052784},
{"country":"me","city":"krusevlje","accentcity":"Krusevlje","region":0.0,"population":"","latitude":42.7916679,"longitude":19.3622227},
{"country":"me","city":"naljezici","accentcity":"Naljezici","region":0.0,"population":"","latitude":42.3730545,"longitude":18.7758331},
{"country":"me","city":"nange","accentcity":"Nange","region":0.0,"population":"","latitude":43.4205551,"longitude":19.0961113},
{"country":"me","city":"nanhelm","accentcity":"Nanhelm","region":0.0,"population":"","latitude":42.3083344,"longitude":19.3408337},
{"country":"me","city":"naplav","accentcity":"Naplav","region":0.0,"population":"","latitude":43.3502769,"longitude":19.2769432},
{"country":"me","city":"na pode","accentcity":"Na Pode","region":0.0,"population":"","latitude":42.5544434,"longitude":18.65611},
{"country":"me","city":"navotina","accentcity":"Navotina","region":0.0,"population":"","latitude":42.7941666,"longitude":19.8447227},
{"country":"me","city":"na vrh polja","accentcity":"Na Vrh Polja","region":0.0,"population":"","latitude":42.4283333,"longitude":18.8230553},
{"country":"me","city":"nazdre","accentcity":"Nazdre","region":0.0,"population":"","latitude":42.9416656,"longitude":18.8402786},
{"country":"me","city":"nedajno","accentcity":"Nedajno","region":0.0,"population":"","latitude":43.2,"longitude":18.9833336},
{"country":"me","city":"nedakusi","accentcity":"Nedakusi","region":0.0,"population":"","latitude":43.05639,"longitude":19.7680569},
{"country":"me","city":"nefertara","accentcity":"Nefertara","region":0.0,"population":"","latitude":43.18111,"longitude":19.248333},
{"country":"me","city":"negnjevo","accentcity":"Negnjevo","region":0.0,"population":"","latitude":43.08361,"longitude":19.7847214},
{"country":"me","city":"negobratina","accentcity":"Negobratina","region":0.0,"population":"","latitude":43.02833,"longitude":19.9225},
{"country":"me","city":"negobuda","accentcity":"Negobuda","region":0.0,"population":"","latitude":43.1225,"longitude":19.2202778},
{"country":"me","city":"negosi","accentcity":"Negosi","region":0.0,"population":"","latitude":42.4330559,"longitude":18.8283329},
{"country":"me","city":"neodi","accentcity":"Neodi","region":0.0,"population":"","latitude":42.2952766,"longitude":18.76111},
{"country":"me","city":"nerim","accentcity":"Nerim","region":0.0,"population":"","latitude":42.56389,"longitude":18.81139},
{"country":"me","city":"neviden","accentcity":"Neviden","region":0.0,"population":"","latitude":43.32083,"longitude":19.1933327},
{"country":"me","city":"niegos","accentcity":"Niegos","region":0.0,"population":"","latitude":42.4347229,"longitude":18.83},
{"country":"me","city":"nik �okaj","accentcity":"Nik �okaj","region":0.0,"population":"","latitude":42.3394432,"longitude":19.3841667},
{"country":"me","city":"nikezici","accentcity":"Nikezici","region":0.0,"population":"","latitude":41.9961128,"longitude":19.2133331},
{"country":"me","city":"nikmarasi","accentcity":"Nikmarasi","region":0.0,"population":"","latitude":42.4419441,"longitude":19.4361115},
{"country":"me","city":"nik maras","accentcity":"Nik Maras","region":0.0,"population":"","latitude":42.4419441,"longitude":19.4361115},
{"country":"me","city":"nikmaros","accentcity":"Nikmaros","region":0.0,"population":"","latitude":42.4419441,"longitude":19.4361115},
{"country":"me","city":"nikolici","accentcity":"Nikolici","region":0.0,"population":"","latitude":42.4538879,"longitude":18.71139},
{"country":"me","city":"nikoljac","accentcity":"Nikoljac","region":0.0,"population":"","latitude":43.0238876,"longitude":19.7425},
{"country":"me","city":"nikonovac","accentcity":"Nikonovac","region":0.0,"population":"","latitude":42.7744446,"longitude":19.3902779},
{"country":"me","city":"nikovici","accentcity":"Nikovici","region":0.0,"population":"","latitude":43.26889,"longitude":18.9522228},
{"country":"me","city":"niksic","accentcity":"Niksic","region":0.0,"population":65896.0,"latitude":42.775,"longitude":18.9583321},
{"country":"me","city":"ninkovici","accentcity":"Ninkovici","region":0.0,"population":"","latitude":43.18028,"longitude":19.2},
{"country":"me","city":"nistice","accentcity":"Nistice","region":0.0,"population":"","latitude":42.9958344,"longitude":18.7233334},
{"country":"me","city":"njegnjevo","accentcity":"Njegnjevo","region":0.0,"population":"","latitude":43.08361,"longitude":19.7847214},
{"country":"me","city":"njegosi","accentcity":"Njegosi","region":0.0,"population":"","latitude":42.4330559,"longitude":18.8283329},
{"country":"me","city":"njegovuda","accentcity":"Njegovuda","region":0.0,"population":"","latitude":43.1225,"longitude":19.2202778},
{"country":"me","city":"njegule","accentcity":"Njegule","region":0.0,"population":"","latitude":42.49889,"longitude":19.0666676},
{"country":"me","city":"njegulov do","accentcity":"Njegulov Do","region":0.0,"population":"","latitude":42.54028,"longitude":18.8636112},
{"country":"me","city":"njegusi","accentcity":"Njegusi","region":0.0,"population":"","latitude":42.42917,"longitude":18.82611},
{"country":"me","city":"njive","accentcity":"Njive","region":0.0,"population":"","latitude":42.31333,"longitude":19.03861},
{"country":"me","city":"njivica","accentcity":"Njivica","region":0.0,"population":"","latitude":43.3577766,"longitude":19.1769447},
{"country":"me","city":"njivice","accentcity":"Njivice","region":0.0,"population":"","latitude":42.4355545,"longitude":18.51361},
{"country":"me","city":"nogulovici","accentcity":"Nogulovici","region":0.0,"population":"","latitude":42.47222,"longitude":18.5727787},
{"country":"me","city":"nokte","accentcity":"Nokte","region":0.0,"population":"","latitude":43.4191666,"longitude":19.2033329},
{"country":"me","city":"norin","accentcity":"Norin","region":0.0,"population":"","latitude":42.7116661,"longitude":18.9894447},
{"country":"me","city":"novakovica do","accentcity":"Novakovica Do","region":0.0,"population":"","latitude":42.9644432,"longitude":18.5722218},
{"country":"me","city":"novakovice","accentcity":"Novakovice","region":0.0,"population":"","latitude":42.72333,"longitude":19.4222221},
{"country":"me","city":"novakovici","accentcity":"Novakovici","region":0.0,"population":"","latitude":43.0866661,"longitude":19.1652775},
{"country":"me","city":"nova pec","accentcity":"Nova Pec","region":0.0,"population":"","latitude":42.40333,"longitude":18.68639},
{"country":"me","city":"nova varos","accentcity":"Nova Varos","region":0.0,"population":"","latitude":42.4422226,"longitude":19.27},
{"country":"me","city":"novcici","accentcity":"Novcici","region":0.0,"population":"","latitude":42.6391678,"longitude":19.94111},
{"country":"me","city":"novi crnokrpe","accentcity":"Novi Crnokrpe","region":0.0,"population":"","latitude":42.925,"longitude":20.2327785},
{"country":"me","city":"novoselje","accentcity":"Novoselje","region":0.0,"population":"","latitude":42.2197227,"longitude":18.9561119},
{"country":"me","city":"novo selo","accentcity":"Novo Selo","region":0.0,"population":"","latitude":42.4252777,"longitude":19.3083324},
{"country":"me","city":"novsici","accentcity":"Novsici","region":0.0,"population":"","latitude":42.6391678,"longitude":19.94111},
{"country":"me","city":"nozdra","accentcity":"Nozdra","region":0.0,"population":"","latitude":42.9416656,"longitude":18.8402786},
{"country":"me","city":"nozica","accentcity":"Nozica","region":0.0,"population":"","latitude":42.62583,"longitude":19.4566669},
{"country":"me","city":"nudo","accentcity":"Nudo","region":0.0,"population":"","latitude":42.6725,"longitude":18.56639},
{"country":"me","city":"nuga borkovica","accentcity":"Nuga Borkovica","region":0.0,"population":"","latitude":42.7316666,"longitude":18.9369431},
{"country":"me","city":"nugo","accentcity":"Nugo","region":0.0,"population":"","latitude":42.68722,"longitude":18.6141663},
{"country":"me","city":"nurkovici","accentcity":"Nurkovici","region":0.0,"population":"","latitude":42.8475,"longitude":20.1216679},
{"country":"me","city":"nurkovi dolovi","accentcity":"Nurkovi Dolovi","region":0.0,"population":"","latitude":42.8241653,"longitude":18.7258339},
{"country":"me","city":"obadovica","accentcity":"Obadovica","region":0.0,"population":"","latitude":42.6205559,"longitude":18.8441677},
{"country":"me","city":"obalica","accentcity":"Obalica","region":0.0,"population":"","latitude":42.45361,"longitude":18.6108322},
{"country":"me","city":"obalice","accentcity":"Obalice","region":0.0,"population":"","latitude":42.45361,"longitude":18.6108322},
{"country":"me","city":"obarde","accentcity":"Obarde","region":0.0,"population":"","latitude":43.2908325,"longitude":19.5175},
{"country":"me","city":"sljeme","accentcity":"Sljeme","region":0.0,"population":"","latitude":42.90917,"longitude":18.5697212},
{"country":"me","city":"sljepasnica","accentcity":"Sljepasnica","region":0.0,"population":"","latitude":43.06861,"longitude":19.7591667},
{"country":"me","city":"sljepasnjica","accentcity":"Sljepasnjica","region":0.0,"population":"","latitude":43.06861,"longitude":19.7591667},
{"country":"me","city":"sljerne","accentcity":"Sljerne","region":0.0,"population":"","latitude":42.90917,"longitude":18.5697212},
{"country":"me","city":"sljivansko","accentcity":"Sljivansko","region":0.0,"population":"","latitude":43.1277771,"longitude":19.3},
{"country":"me","city":"sljivensko","accentcity":"Sljivensko","region":0.0,"population":"","latitude":43.3216667,"longitude":19.2127781},
{"country":"me","city":"sljivlje","accentcity":"Sljivlje","region":0.0,"population":"","latitude":42.9005547,"longitude":19.5275},
{"country":"me","city":"sljucka strana","accentcity":"Sljucka Strana","region":0.0,"population":"","latitude":43.28417,"longitude":19.4672222},
{"country":"me","city":"sljuke","accentcity":"Sljuke","region":0.0,"population":"","latitude":43.36111,"longitude":19.1277771},
{"country":"me","city":"smailagica polje","accentcity":"Smailagica Polje","region":0.0,"population":"","latitude":42.8244438,"longitude":19.5433331},
{"country":"me","city":"smira","accentcity":"Smira","region":0.0,"population":"","latitude":42.7325,"longitude":19.4522228},
{"country":"me","city":"smocije","accentcity":"Smocije","region":0.0,"population":"","latitude":42.8291664,"longitude":19.3955555},
{"country":"me","city":"smocilje","accentcity":"Smocilje","region":0.0,"population":"","latitude":42.8291664,"longitude":19.3955555},
{"country":"me","city":"smocje","accentcity":"Smocje","region":0.0,"population":"","latitude":42.8291664,"longitude":19.3955555},
{"country":"me","city":"smokovac","accentcity":"Smokovac","region":0.0,"population":"","latitude":42.4805565,"longitude":19.3052788},
{"country":"me","city":"smokovci","accentcity":"Smokovci","region":0.0,"population":"","latitude":42.32028,"longitude":19.0194435},
{"country":"me","city":"smolice","accentcity":"Smolice","region":0.0,"population":"","latitude":42.7258339,"longitude":19.3502789},
{"country":"me","city":"smoljan","accentcity":"Smoljan","region":0.0,"population":"","latitude":43.0925,"longitude":19.2277775},
{"country":"me","city":"smrcje","accentcity":"Smrcje","region":0.0,"population":"","latitude":42.7952766,"longitude":19.57361},
{"country":"me","city":"smrdan","accentcity":"Smrdan","region":0.0,"population":"","latitude":43.3944435,"longitude":19.3644447},
{"country":"me","city":"smrdusa","accentcity":"Smrdusa","region":0.0,"population":"","latitude":42.78417,"longitude":18.70139},
{"country":"me","city":"smreka","accentcity":"Smreka","region":0.0,"population":"","latitude":42.7219429,"longitude":19.34389},
{"country":"me","city":"smrijecno","accentcity":"Smrijecno","region":0.0,"population":"","latitude":43.12639,"longitude":18.7755566},
{"country":"me","city":"sobaici","accentcity":"Sobaici","region":0.0,"population":"","latitude":42.6277771,"longitude":19.0677776},
{"country":"me","city":"sobajica","accentcity":"Sobajica","region":0.0,"population":"","latitude":42.6277771,"longitude":19.0677776},
{"country":"me","city":"sobajici","accentcity":"Sobajici","region":0.0,"population":"","latitude":42.6277771,"longitude":19.0677776},
{"country":"me","city":"sobojici","accentcity":"Sobojici","region":0.0,"population":"","latitude":42.6277771,"longitude":19.0677776},
{"country":"me","city":"sokolac","accentcity":"Sokolac","region":0.0,"population":"","latitude":43.0866661,"longitude":19.57361},
{"country":"me","city":"sokolovic","accentcity":"Sokolovic","region":0.0,"population":"","latitude":43.3266678,"longitude":19.2330551},
{"country":"me","city":"sokubin","accentcity":"Sokubin","region":0.0,"population":"","latitude":42.0130577,"longitude":19.3644447},
{"country":"me","city":"solila","accentcity":"Solila","region":0.0,"population":"","latitude":43.1119423,"longitude":19.6730556},
{"country":"me","city":"solinski brijeg","accentcity":"Solinski Brijeg","region":0.0,"population":"","latitude":42.5586128,"longitude":18.7441673},
{"country":"me","city":"solja","accentcity":"Solja","region":0.0,"population":"","latitude":43.0830574,"longitude":19.853611},
{"country":"me","city":"somina","accentcity":"Somina","region":0.0,"population":"","latitude":42.9136124,"longitude":19.3063889},
{"country":"me","city":"sosunja","accentcity":"Sosunja","region":0.0,"population":"","latitude":42.3161125,"longitude":19.2241669},
{"country":"me","city":"sotonici","accentcity":"Sotonici","region":0.0,"population":"","latitude":42.2344437,"longitude":19.0491676},
{"country":"me","city":"sozina","accentcity":"Sozina","region":0.0,"population":"","latitude":42.175,"longitude":19.0519447},
{"country":"me","city":"spahici","accentcity":"Spahici","region":0.0,"population":"","latitude":42.00833,"longitude":19.2272224},
{"country":"me","city":"spaljevici","accentcity":"Spaljevici","region":0.0,"population":"","latitude":42.7272224,"longitude":19.9327774},
{"country":"me","city":"spanjola","accentcity":"Spanjola","region":0.0,"population":"","latitude":42.45778,"longitude":18.5302773},
{"country":"me","city":"spasojevica","accentcity":"Spasojevica","region":0.0,"population":"","latitude":43.0244446,"longitude":19.8041668},
{"country":"me","city":"spic","accentcity":"Spic","region":0.0,"population":"","latitude":42.1427765,"longitude":19.0466671},
{"country":"me","city":"spila","accentcity":"Spila","region":0.0,"population":"","latitude":42.7244453,"longitude":18.6411114},
{"country":"me","city":"spilice","accentcity":"Spilice","region":0.0,"population":"","latitude":42.43139,"longitude":18.57611},
{"country":"me","city":"spilja","accentcity":"Spilja","region":0.0,"population":"","latitude":42.35139,"longitude":19.3758335},
{"country":"me","city":"spilje","accentcity":"Spilje","region":0.0,"population":"","latitude":42.4544449,"longitude":18.48639},
{"country":"me","city":"spinja","accentcity":"Spinja","region":0.0,"population":"","latitude":42.35139,"longitude":19.3758335},
{"country":"me","city":"spuz","accentcity":"Spuz","region":0.0,"population":"","latitude":42.5075,"longitude":19.1941662},