[
{"country":"to","city":"holobeka","accentcity":"Holobeka","region":1.0,"population":"","latitude":-19.7833328,"longitude":-174.35},
{"country":"to","city":"holonga","accentcity":"Holonga","region":2.0,"population":"","latitude":-21.1833324,"longitude":-175.15},
{"country":"to","city":"holonga","accentcity":"Holonga","region":3.0,"population":"","latitude":-18.583334,"longitude":-173.96666},
{"country":"to","city":"holopeka","accentcity":"Holopeka","region":1.0,"population":"","latitude":-19.7833328,"longitude":-174.35},
{"country":"to","city":"houma","accentcity":"Houma","region":2.0,"population":"","latitude":-21.166666,"longitude":-175.3},
{"country":"to","city":"huma","accentcity":"Huma","region":2.0,"population":"","latitude":-21.3166676,"longitude":-174.933334},
{"country":"to","city":"kala`au","accentcity":"Kala`au","region":2.0,"population":"","latitude":-21.1333332,"longitude":-175.333328},
{"country":"to","city":"kanokupolu","accentcity":"Kanokupolu","region":2.0,"population":"","latitude":-21.083334,"longitude":-175.333328},
{"country":"to","city":"kolevai","accentcity":"Kolevai","region":2.0,"population":"","latitude":-21.1,"longitude":-175.333328},
{"country":"to","city":"koloa","accentcity":"Koloa","region":3.0,"population":"","latitude":-18.65,"longitude":-173.933334},
{"country":"to","city":"kolofuu","accentcity":"Kolofuu","region":2.0,"population":"","latitude":-21.2,"longitude":-175.166672},
{"country":"to","city":"kolonga","accentcity":"Kolonga","region":2.0,"population":"","latitude":-21.1333332,"longitude":-175.066666},
{"country":"to","city":"kolovai","accentcity":"Kolovai","region":2.0,"population":"","latitude":-21.1,"longitude":-175.333328},
{"country":"to","city":"koulo","accentcity":"Koulo","region":1.0,"population":"","latitude":-19.7833328,"longitude":-174.35},
{"country":"to","city":"lakepa","accentcity":"Lakepa","region":2.0,"population":"","latitude":-21.15,"longitude":-175.28334},
{"country":"to","city":"lavengatonga","accentcity":"Lavengatonga","region":2.0,"population":"","latitude":-21.2333336,"longitude":-175.116669},
{"country":"to","city":"leimatu`a","accentcity":"Leimatu`a","region":3.0,"population":"","latitude":-18.6,"longitude":-173.983337},
{"country":"to","city":"logoteme","accentcity":"Logoteme","region":2.0,"population":"","latitude":-21.1833324,"longitude":-175.166672},
{"country":"to","city":"longomabu","accentcity":"Longomabu","region":3.0,"population":"","latitude":-18.6333332,"longitude":-174.05},
{"country":"to","city":"longomapu","accentcity":"Longomapu","region":3.0,"population":"","latitude":-18.6333332,"longitude":-174.05},
{"country":"to","city":"longoteme","accentcity":"Longoteme","region":2.0,"population":"","latitude":-21.1833324,"longitude":-175.166672},
{"country":"to","city":"lotofoa","accentcity":"Lotofoa","region":1.0,"population":"","latitude":-19.75,"longitude":-174.316666},
{"country":"to","city":"makauga","accentcity":"Makauga","region":2.0,"population":"","latitude":-21.15,"longitude":-175.133331},
{"country":"to","city":"makaunga","accentcity":"Makaunga","region":2.0,"population":"","latitude":-21.15,"longitude":-175.133331},
{"country":"to","city":"makave","accentcity":"Makave","region":3.0,"population":"","latitude":-18.65,"longitude":-173.96666},
{"country":"to","city":"malapo","accentcity":"Malapo","region":2.0,"population":"","latitude":-21.2,"longitude":-175.15},
{"country":"to","city":"mangia","accentcity":"Mangia","region":3.0,"population":"","latitude":-18.6166668,"longitude":-173.95},
{"country":"to","city":"manuka","accentcity":"Manuka","region":2.0,"population":"","latitude":-21.1166668,"longitude":-175.1},
{"country":"to","city":"masilamea","accentcity":"Masilamea","region":2.0,"population":"","latitude":-21.1166668,"longitude":-175.316666},
{"country":"to","city":"masitamea","accentcity":"Masitamea","region":2.0,"population":"","latitude":-21.1166668,"longitude":-175.316666},
{"country":"to","city":"mata`aho","accentcity":"Mata`aho","region":3.0,"population":"","latitude":-15.583333,"longitude":-175.616669},
{"country":"to","city":"matahau","accentcity":"Matahau","region":2.0,"population":"","latitude":-21.15,"longitude":-175.316666},
{"country":"to","city":"mataika","accentcity":"Mataika","region":3.0,"population":"","latitude":-18.6166668,"longitude":-173.96666},
{"country":"to","city":"matavai","accentcity":"Matavai","region":3.0,"population":"","latitude":-15.9666672,"longitude":-173.75},
{"country":"to","city":"moa","accentcity":"Moa","region":2.0,"population":"","latitude":-21.1833324,"longitude":-175.116669},
{"country":"to","city":"mu`a","accentcity":"Mu`a","region":2.0,"population":"","latitude":-21.1833324,"longitude":-175.116669},
{"country":"to","city":"mu`a","accentcity":"Mu`a","region":3.0,"population":"","latitude":-15.6,"longitude":-175.6},
{"country":"to","city":"muitoa","accentcity":"Muitoa","region":1.0,"population":"","latitude":-19.65,"longitude":-174.3},
{"country":"to","city":"nakolo","accentcity":"Nakolo","region":2.0,"population":"","latitude":-21.25,"longitude":-175.116669},
{"country":"to","city":"navea","accentcity":"Navea","region":1.0,"population":"","latitude":-19.8,"longitude":-174.35},
{"country":"to","city":"navutoka","accentcity":"Navutoka","region":2.0,"population":"","latitude":-21.1166668,"longitude":-175.1},
{"country":"to","city":"neafu","accentcity":"Neafu","region":3.0,"population":"","latitude":-18.65,"longitude":-173.983337},
{"country":"to","city":"nei-afo","accentcity":"Nei-afo","region":3.0,"population":"","latitude":-18.65,"longitude":-173.983337},
{"country":"to","city":"neiafu","accentcity":"Neiafu","region":2.0,"population":"","latitude":-21.083334,"longitude":-175.333328},
{"country":"to","city":"neiafu","accentcity":"Neiafu","region":3.0,"population":4320.0,"latitude":-18.65,"longitude":-173.983337},
{"country":"to","city":"ngaakau","accentcity":"Ngaakau","region":3.0,"population":"","latitude":-18.6333332,"longitude":-174.016663},
{"country":"to","city":"niukalofa","accentcity":"Niukalofa","region":2.0,"population":"","latitude":-21.1333332,"longitude":-175.2},
{"country":"to","city":"niutoua","accentcity":"Niutoua","region":2.0,"population":"","latitude":-21.1333332,"longitude":-175.05},
{"country":"to","city":"nobabu","accentcity":"Nobabu","region":3.0,"population":"","latitude":-18.7,"longitude":-174.083328},
{"country":"to","city":"nopapu","accentcity":"Nopapu","region":3.0,"population":"","latitude":-18.7,"longitude":-174.083328},
{"country":"to","city":"nukalofa","accentcity":"Nukalofa","region":2.0,"population":"","latitude":-21.1333332,"longitude":-175.2},
{"country":"to","city":"nuku`alofa","accentcity":"Nuku`alofa","region":2.0,"population":"","latitude":-21.1333332,"longitude":-175.2},
{"country":"to","city":"nuku`aloia","accentcity":"Nuku`aloia","region":2.0,"population":"","latitude":-21.1333332,"longitude":-175.2},
{"country":"to","city":"nukuhetulu","accentcity":"Nukuhetulu","region":2.0,"population":"","latitude":-21.166666,"longitude":-175.2},
{"country":"to","city":"nukuhi","accentcity":"Nukuhi","region":2.0,"population":"","latitude":-21.166666,"longitude":-175.2},
{"country":"to","city":"nukuleka","accentcity":"Nukuleka","region":2.0,"population":"","latitude":-21.15,"longitude":-175.133331},
{"country":"to","city":"nukunuku","accentcity":"Nukunuku","region":2.0,"population":"","latitude":-21.1333332,"longitude":-175.3},
{"country":"to","city":"`ohonua","accentcity":"`Ohonua","region":2.0,"population":"","latitude":-21.333334,"longitude":-174.95},
{"country":"to","city":"paa","accentcity":"Paa","region":2.0,"population":"","latitude":-21.1833324,"longitude":-175.233337},
{"country":"to","city":"pangai","accentcity":"Pangai","region":1.0,"population":1737.0,"latitude":-19.8,"longitude":-174.35},
{"country":"to","city":"pangai","accentcity":"Pangai","region":2.0,"population":"","latitude":-21.3666668,"longitude":-174.95},
{"country":"to","city":"pangai","accentcity":"Pangai","region":3.0,"population":"","latitude":-18.6833324,"longitude":-174.0},
{"country":"to","city":"pea","accentcity":"Pea","region":2.0,"population":"","latitude":-21.1833324,"longitude":-175.233337},
{"country":"to","city":"petani","accentcity":"Petani","region":3.0,"population":"","latitude":-15.6333332,"longitude":-175.616669},
{"country":"to","city":"puke","accentcity":"Puke","region":2.0,"population":"","latitude":-21.1333332,"longitude":-175.233337},
{"country":"to","city":"pukotala","accentcity":"Pukotala","region":1.0,"population":"","latitude":-19.6833324,"longitude":-174.28334},
{"country":"to","city":"pukutala","accentcity":"Pukutala","region":1.0,"population":"","latitude":-19.6833324,"longitude":-174.28334},
{"country":"to","city":"puleieia","accentcity":"Puleieia","region":1.0,"population":"","latitude":-19.6,"longitude":-174.45},
{"country":"to","city":"sapa`ata","accentcity":"Sapa`ata","region":3.0,"population":"","latitude":-15.5666666,"longitude":-175.616669},
{"country":"to","city":"ta`anea","accentcity":"Ta`anea","region":3.0,"population":"","latitude":-18.6,"longitude":-173.95},
{"country":"to","city":"talafo`ou","accentcity":"Talafo`ou","region":2.0,"population":"","latitude":-21.1333332,"longitude":-175.1},
{"country":"to","city":"talafu","accentcity":"Talafu","region":2.0,"population":"","latitude":-21.1333332,"longitude":-175.1},
{"country":"to","city":"te`ekiu","accentcity":"Te`ekiu","region":2.0,"population":"","latitude":-21.1333332,"longitude":-175.316666},
{"country":"to","city":"tefisi","accentcity":"Tefisi","region":3.0,"population":"","latitude":-18.6333332,"longitude":-174.016663},
{"country":"to","city":"tofoa","accentcity":"Tofoa","region":2.0,"population":"","latitude":-21.166666,"longitude":-175.233337},
{"country":"to","city":"tokomololo","accentcity":"Tokomololo","region":2.0,"population":"","latitude":-21.1833324,"longitude":-175.266663},
{"country":"to","city":"tongamama`o","accentcity":"Tongamama`o","region":3.0,"population":"","latitude":-15.6166668,"longitude":-175.6},
{"country":"to","city":"tuanekevale","accentcity":"Tuanekevale","region":3.0,"population":"","latitude":-18.6333332,"longitude":-173.916672},
{"country":"to","city":"tu`anekivale","accentcity":"Tu`anekivale","region":3.0,"population":"","latitude":-18.6333332,"longitude":-173.916672},
{"country":"to","city":"tu`anuku","accentcity":"Tu`anuku","region":3.0,"population":"","latitude":-18.666666,"longitude":-174.03334},
{"country":"to","city":"tufavai","accentcity":"Tufavai","region":2.0,"population":"","latitude":-21.3666668,"longitude":-174.96666},
{"country":"to","city":"tufurai","accentcity":"Tufurai","region":2.0,"population":"","latitude":-21.3666668,"longitude":-174.96666},
{"country":"to","city":"tufu","accentcity":"Tufu","region":2.0,"population":"","latitude":-21.3666668,"longitude":-174.96666},
{"country":"to","city":"utui","accentcity":"Utui","region":3.0,"population":"","latitude":-18.6333332,"longitude":-173.96666},
{"country":"to","city":"`utulau","accentcity":"`Utulau","region":2.0,"population":"","latitude":-21.1833324,"longitude":-175.266663},
{"country":"to","city":"utulei","accentcity":"Utulei","region":3.0,"population":"","latitude":-18.65,"longitude":-174.0},
{"country":"to","city":"vaimalo","accentcity":"Vaimalo","region":3.0,"population":"","latitude":-18.6333332,"longitude":-174.0},
{"country":"to","city":"vaini","accentcity":"Vaini","region":2.0,"population":2976.0,"latitude":-21.2,"longitude":-175.2},
{"country":"to","city":"vaipoa","accentcity":"Vaipoa","region":3.0,"population":"","latitude":-15.95,"longitude":-173.75},
{"country":"to","city":"vaotu`u","accentcity":"Vaotu`u","region":2.0,"population":"","latitude":-21.15,"longitude":-175.316666},
{"country":"to","city":"veitogo","accentcity":"Veitogo","region":2.0,"population":"","latitude":-21.1833324,"longitude":-175.21666},
{"country":"to","city":"veitongo","accentcity":"Veitongo","region":2.0,"population":"","latitude":-21.1833324,"longitude":-175.21666},
{"country":"to","city":"afa","accentcity":"Afa","region":2.0,"population":"","latitude":-21.1333332,"longitude":-175.05},
{"country":"to","city":"`ahau","accentcity":"`Ahau","region":2.0,"population":"","latitude":-21.1,"longitude":-175.35},
{"country":"to","city":"alaki","accentcity":"Alaki","region":2.0,"population":"","latitude":-21.1833324,"longitude":-175.133331},
{"country":"to","city":"alaki fonua","accentcity":"Alaki Fonua","region":1.0,"population":"","latitude":-19.75,"longitude":-174.316666},
{"country":"to","city":"bagai","accentcity":"Bagai","region":1.0,"population":"","latitude":-19.8,"longitude":-174.35},
{"country":"to","city":"bangai","accentcity":"Bangai","region":1.0,"population":"","latitude":-19.8,"longitude":-174.35},
{"country":"to","city":"bea","accentcity":"Bea","region":2.0,"population":"","latitude":-21.1833324,"longitude":-175.233337},
{"country":"to","city":"buke","accentcity":"Buke","region":2.0,"population":"","latitude":-21.1333332,"longitude":-175.233337},
{"country":"to","city":"bukutala","accentcity":"Bukutala","region":1.0,"population":"","latitude":-19.6833324,"longitude":-174.28334},
{"country":"to","city":"buleieia","accentcity":"Buleieia","region":1.0,"population":"","latitude":-19.6,"longitude":-174.45},
{"country":"to","city":"esia","accentcity":"Esia","region":3.0,"population":"","latitude":-15.5666666,"longitude":-175.633331},
{"country":"to","city":"fahefa","accentcity":"Fahefa","region":2.0,"population":"","latitude":-21.1333332,"longitude":-175.333328},
{"country":"to","city":"fakakai","accentcity":"Fakakai","region":1.0,"population":"","latitude":-19.6833324,"longitude":-174.28334},
{"country":"to","city":"falehau","accentcity":"Falehau","region":3.0,"population":"","latitude":-15.9333334,"longitude":-173.733337},
{"country":"to","city":"faleloa","accentcity":"Faleloa","region":1.0,"population":"","latitude":-19.7333336,"longitude":-174.28334},
{"country":"to","city":"faleono","accentcity":"Faleono","region":3.0,"population":"","latitude":-18.6333332,"longitude":-173.95},
{"country":"to","city":"fatai","accentcity":"Fatai","region":2.0,"population":"","latitude":-21.1333332,"longitude":-175.28334},
{"country":"to","city":"fata`ulua","accentcity":"Fata`ulua","region":3.0,"population":"","latitude":-15.5666666,"longitude":-175.616669},
{"country":"to","city":"fatuma","accentcity":"Fatuma","region":2.0,"population":"","latitude":-21.2,"longitude":-175.116669},
{"country":"to","city":"fatumu","accentcity":"Fatumu","region":2.0,"population":"","latitude":-21.2,"longitude":-175.116669},
{"country":"to","city":"feletoa","accentcity":"Feletoa","region":3.0,"population":"","latitude":-18.6166668,"longitude":-173.96666},
{"country":"to","city":"folaha","accentcity":"Folaha","region":2.0,"population":"","latitude":-21.166666,"longitude":-175.183334},
{"country":"to","city":"fonginonga","accentcity":"Fonginonga","region":1.0,"population":"","latitude":-19.75,"longitude":-174.333328},
{"country":"to","city":"fo`ui","accentcity":"Fo`ui","region":2.0,"population":"","latitude":-21.1166668,"longitude":-175.333328},
{"country":"to","city":"fua`amotu","accentcity":"Fua`amotu","region":2.0,"population":"","latitude":-21.25,"longitude":-175.133331},
{"country":"to","city":"ha`akame","accentcity":"Ha`akame","region":2.0,"population":"","latitude":-21.1833324,"longitude":-175.28334},
{"country":"to","city":"ha`akili","accentcity":"Ha`akili","region":2.0,"population":"","latitude":-21.1,"longitude":-175.333328},
{"country":"to","city":"ha`alalo","accentcity":"Ha`alalo","region":2.0,"population":"","latitude":-21.1833324,"longitude":-175.28334},
{"country":"to","city":"haalaufuli","accentcity":"Haalaufuli","region":3.0,"population":"","latitude":-18.6166668,"longitude":-173.933334},
{"country":"to","city":"ha`ano","accentcity":"Ha`ano","region":1.0,"population":"","latitude":-19.666666,"longitude":-174.3},
{"country":"to","city":"ha`asini","accentcity":"Ha`asini","region":2.0,"population":"","latitude":-21.25,"longitude":-175.116669},
{"country":"to","city":"ha`atafu","accentcity":"Ha`atafu","region":2.0,"population":"","latitude":-21.0666676,"longitude":-175.333328},
{"country":"to","city":"ha`ateiho","accentcity":"Ha`ateiho","region":2.0,"population":"","latitude":-21.166666,"longitude":-175.233337},
{"country":"to","city":"haatua","accentcity":"Haatua","region":2.0,"population":"","latitude":-21.3833332,"longitude":-174.96666},
{"country":"to","city":"ha`avakatolo","accentcity":"Ha`avakatolo","region":2.0,"population":"","latitude":-21.1,"longitude":-175.333328},
{"country":"to","city":"hamula","accentcity":"Hamula","region":2.0,"population":"","latitude":-21.25,"longitude":-175.116669},
{"country":"to","city":"hanak","accentcity":"Hanak","region":2.0,"population":"","latitude":-21.1,"longitude":-175.333328},
{"country":"to","city":"hatou","accentcity":"Hatou","region":1.0,"population":"","latitude":-19.8166676,"longitude":-174.35},
{"country":"to","city":"ha`utu","accentcity":"Ha`utu","region":2.0,"population":"","latitude":-21.1416664,"longitude":-175.329163},
{"country":"to","city":"havelu","accentcity":"Havelu","region":2.0,"population":"","latitude":-21.15,"longitude":-175.21666},
{"country":"to","city":"haveluliku","accentcity":"Haveluliku","region":2.0,"population":"","latitude":-21.2,"longitude":-175.1},
{"country":"to","city":"haveluloto","accentcity":"Haveluloto","region":2.0,"population":"","latitude":-21.15,"longitude":-175.21666},
{"country":"to","city":"hihifo","accentcity":"Hihifo","region":1.0,"population":"","latitude":-19.8166676,"longitude":-174.366669},
{"country":"to","city":"hihifo","accentcity":"Hihifo","region":3.0,"population":815.0,"latitude":-15.95,"longitude":-173.75},
{"country":"to","city":"hofoa","accentcity":"Hofoa","region":2.0,"population":"","latitude":-21.1333332,"longitude":-175.21666},
{"country":"to","city":"hoi","accentcity":"Hoi","region":2.0,"population":"","latitude":-21.166666,"longitude":-175.116669},
]
