[
{"country":"za","city":"angora","accentcity":"Angora","region":11.0,"population":"","latitude":-33.9585953,"longitude":20.0571518},
{"country":"za","city":"annadale","accentcity":"Annadale","region":9.0,"population":"","latitude":-23.8779259,"longitude":29.4486351},
{"country":"za","city":"annasgeluk","accentcity":"Annasgeluk","region":8.0,"population":"","latitude":-27.45354,"longitude":23.8820343},
{"country":"za","city":"annashoop","accentcity":"Annashoop","region":8.0,"population":"","latitude":-28.65,"longitude":23.0666676},
{"country":"za","city":"annaton","accentcity":"Annaton","region":6.0,"population":"","latitude":-26.53465,"longitude":27.91619},
{"country":"za","city":"annawater","accentcity":"Annawater","region":5.0,"population":"","latitude":-31.58437,"longitude":26.812067},
{"country":"za","city":"annesville","accentcity":"Annesville","region":5.0,"population":"","latitude":-31.05746,"longitude":29.1904182},
{"country":"za","city":"annex","accentcity":"Annex","region":3.0,"population":"","latitude":-29.623642,"longitude":26.34048},
{"country":"za","city":"annex kilvorskull","accentcity":"Annex Kilvorskull","region":5.0,"population":"","latitude":-31.5166664,"longitude":25.9333324},
{"country":"za","city":"anniedale","accentcity":"Anniedale","region":5.0,"population":"","latitude":-31.6586933,"longitude":25.7924519},
{"country":"za","city":"anniesdale","accentcity":"Anniesdale","region":3.0,"population":"","latitude":-29.8418922,"longitude":27.0547028},
{"country":"za","city":"annisfontein","accentcity":"Annisfontein","region":8.0,"population":"","latitude":-28.4166679,"longitude":16.8833332},
{"country":"za","city":"annlin","accentcity":"Annlin","region":6.0,"population":"","latitude":-25.6858578,"longitude":28.1975918},
{"country":"za","city":"ann shaw","accentcity":"Ann Shaw","region":5.0,"population":"","latitude":-32.8267555,"longitude":26.9910889},
{"country":"za","city":"annyama","accentcity":"Annyama","region":5.0,"population":"","latitude":-30.8333321,"longitude":28.5},
{"country":"za","city":"antelope park","accentcity":"Antelope Park","region":5.0,"population":"","latitude":-30.81805,"longitude":28.2052116},
{"country":"za","city":"anthonys kraal","accentcity":"Anthonys Kraal","region":5.0,"population":"","latitude":-33.4333344,"longitude":24.0666676},
{"country":"za","city":"antwerp","accentcity":"Antwerp","region":6.0,"population":"","latitude":-26.1052475,"longitude":28.1548271},
{"country":"za","city":"antwerpen","accentcity":"Antwerpen","region":3.0,"population":"","latitude":-30.1904087,"longitude":26.9738445},
{"country":"za","city":"anysberg","accentcity":"Anysberg","region":11.0,"population":"","latitude":-33.5166664,"longitude":20.7666664},
{"country":"za","city":"anysspruit","accentcity":"Anysspruit","region":7.0,"population":"","latitude":-27.0333328,"longitude":31.6166668},
{"country":"za","city":"aoos senekal","accentcity":"Aoos Senekal","region":7.0,"population":"","latitude":-25.1931114,"longitude":29.925436},
{"country":"za","city":"apel","accentcity":"Apel","region":9.0,"population":"","latitude":-24.4144535,"longitude":29.7499123},
{"country":"za","city":"apieskraal","accentcity":"Apieskraal","region":5.0,"population":"","latitude":-33.61667,"longitude":24.2833328},
{"country":"za","city":"appelbos","accentcity":"Appelbos","region":2.0,"population":"","latitude":-29.3846989,"longitude":30.8467331},
{"country":"za","city":"appelsbosch","accentcity":"Appelsbosch","region":2.0,"population":"","latitude":-29.3846989,"longitude":30.8467331},
{"country":"za","city":"aprilskraal","accentcity":"Aprilskraal","region":11.0,"population":"","latitude":-34.1382332,"longitude":19.0656872},
{"country":"za","city":"aqua","accentcity":"Aqua","region":3.0,"population":"","latitude":-29.4669228,"longitude":25.6141319},
{"country":"za","city":"arbeid adelt","accentcity":"Arbeid Adelt","region":3.0,"population":"","latitude":-28.4721317,"longitude":28.8405457},
{"country":"za","city":"arbeidsloon","accentcity":"Arbeidsloon","region":3.0,"population":"","latitude":-29.2941227,"longitude":25.9669514},
{"country":"za","city":"arbeidsvreug","accentcity":"Arbeidsvreug","region":8.0,"population":"","latitude":-29.7836857,"longitude":21.3065548},
{"country":"za","city":"arboretum","accentcity":"Arboretum","region":2.0,"population":"","latitude":-28.7568455,"longitude":32.0617447},
{"country":"za","city":"arbor park","accentcity":"Arbor Park","region":2.0,"population":"","latitude":-27.7771568,"longitude":29.9509},
{"country":"za","city":"arborville","accentcity":"Arborville","region":2.0,"population":"","latitude":-30.3385773,"longitude":30.5992966},
{"country":"za","city":"arcadia","accentcity":"Arcadia","region":3.0,"population":"","latitude":-27.3166676,"longitude":29.2833328},
{"country":"za","city":"arcadia","accentcity":"Arcadia","region":5.0,"population":"","latitude":-33.0087738,"longitude":27.9048176},
{"country":"za","city":"archbell","accentcity":"Archbell","region":3.0,"population":"","latitude":-29.0333328,"longitude":26.85},
{"country":"za","city":"arcon park","accentcity":"Arcon Park","region":6.0,"population":"","latitude":-26.63446,"longitude":27.9433212},
{"country":"za","city":"ardath","accentcity":"Ardath","region":10.0,"population":"","latitude":-27.0988522,"longitude":23.1617718},
{"country":"za","city":"ardee","accentcity":"Ardee","region":2.0,"population":"","latitude":-30.3889427,"longitude":30.37569},
{"country":"za","city":"ardmore","accentcity":"Ardmore","region":2.0,"population":"","latitude":-29.0137234,"longitude":29.4935036},
{"country":"za","city":"argyle","accentcity":"Argyle","region":5.0,"population":"","latitude":-32.7166672,"longitude":26.8666668},
{"country":"za","city":"ariemagom","accentcity":"Ariemagom","region":8.0,"population":"","latitude":-28.2166672,"longitude":21.3166676},
{"country":"za","city":"ariesputs","accentcity":"Ariesputs","region":8.0,"population":"","latitude":-28.6333332,"longitude":20.25},
{"country":"za","city":"ariston","accentcity":"Ariston","region":10.0,"population":"","latitude":-26.9333324,"longitude":26.6666679},
{"country":"za","city":"arlington","accentcity":"Arlington","region":3.0,"population":"","latitude":-28.0288086,"longitude":27.85335},
{"country":"za","city":"armburg","accentcity":"Armburg","region":7.0,"population":"","latitude":-26.0486,"longitude":30.8368244},
{"country":"za","city":"armistice","accentcity":"Armistice","region":5.0,"population":"","latitude":-33.2472343,"longitude":26.6067772},
{"country":"za","city":"armmansvriend","accentcity":"Armmansvriend","region":5.0,"population":"","latitude":-33.65,"longitude":24.6333332},
{"country":"za","city":"arniston","accentcity":"Arniston","region":11.0,"population":"","latitude":-34.66739,"longitude":20.2308617},
{"country":"za","city":"arnot","accentcity":"Arnot","region":7.0,"population":"","latitude":-25.9458218,"longitude":29.8069267},
{"country":"za","city":"arthurs seat","accentcity":"Arthurs Seat","region":5.0,"population":"","latitude":-31.65,"longitude":25.9333324},
{"country":"za","city":"arthur's seat","accentcity":"Arthur's Seat","region":7.0,"population":"","latitude":-24.6507568,"longitude":31.0224743},
{"country":"za","city":"artmor","accentcity":"Artmor","region":5.0,"population":"","latitude":-31.6688175,"longitude":26.3062649},
{"country":"za","city":"asbosbam","accentcity":"Asbosbam","region":8.0,"population":"","latitude":-30.9,"longitude":21.75},
{"country":"za","city":"aseries puts","accentcity":"Aseries Puts","region":8.0,"population":"","latitude":-28.1333332,"longitude":20.3166676},
{"country":"za","city":"ashfield","accentcity":"Ashfield","region":10.0,"population":"","latitude":-26.3768311,"longitude":23.2410259},
{"country":"za","city":"ashley","accentcity":"Ashley","region":2.0,"population":"","latitude":-29.5506268,"longitude":30.1125469},
{"country":"za","city":"ashton","accentcity":"Ashton","region":2.0,"population":"","latitude":-29.3166676,"longitude":31.2333336},
{"country":"za","city":"ashton","accentcity":"Ashton","region":11.0,"population":"","latitude":-33.83136,"longitude":20.0559444},
{"country":"za","city":"askeaton","accentcity":"Askeaton","region":5.0,"population":"","latitude":-31.62792,"longitude":27.46061},
{"country":"za","city":"askham","accentcity":"Askham","region":8.0,"population":"","latitude":-26.9801865,"longitude":20.7817917},
{"country":"za","city":"askraal","accentcity":"Askraal","region":11.0,"population":"","latitude":-34.13333,"longitude":20.8666668},
{"country":"za","city":"aspley","accentcity":"Aspley","region":7.0,"population":"","latitude":-26.7797222,"longitude":29.0702744},
{"country":"za","city":"biltonfontein","accentcity":"Biltonfontein","region":9.0,"population":"","latitude":-24.0015678,"longitude":28.9924965},
{"country":"za","city":"bisho","accentcity":"Bisho","region":5.0,"population":137288.0,"latitude":-32.8472137,"longitude":27.4421787},
{"country":"za","city":"bishop colenso","accentcity":"Bishop Colenso","region":2.0,"population":"","latitude":-29.57643,"longitude":30.4545383},
{"country":"za","city":"bishop lavis","accentcity":"Bishop Lavis","region":11.0,"population":"","latitude":-33.9472847,"longitude":18.5751324},
{"country":"za","city":"bishopscourt","accentcity":"Bishopscourt","region":11.0,"population":"","latitude":-33.9910927,"longitude":18.4442177},
{"country":"za","city":"bishopstowe","accentcity":"Bishopstowe","region":2.0,"population":"","latitude":-29.57643,"longitude":30.4545383},
{"country":"za","city":"bisi","accentcity":"Bisi","region":5.0,"population":"","latitude":-30.4110031,"longitude":29.8895683},
{"country":"za","city":"biskop","accentcity":"Biskop","region":3.0,"population":"","latitude":-29.0333328,"longitude":26.7666664},
{"country":"za","city":"bitterfontein","accentcity":"Bitterfontein","region":11.0,"population":"","latitude":-31.03709,"longitude":18.2648411},
{"country":"za","city":"bittern","accentcity":"Bittern","region":5.0,"population":"","latitude":-30.2994,"longitude":28.60807},
{"country":"za","city":"bitterne","accentcity":"Bitterne","region":5.0,"population":"","latitude":-30.2994,"longitude":28.60807},
{"country":"za","city":"bitterplat","accentcity":"Bitterplat","region":5.0,"population":"","latitude":-31.2029514,"longitude":26.9789162},
{"country":"za","city":"bitterwater","accentcity":"Bitterwater","region":11.0,"population":"","latitude":-32.7691727,"longitude":21.9665661},
{"country":"za","city":"bityi","accentcity":"Bityi","region":5.0,"population":"","latitude":-31.8,"longitude":28.5333328},
{"country":"za","city":"biyela","accentcity":"Biyela","region":2.0,"population":"","latitude":-28.4833336,"longitude":31.55},
{"country":"za","city":"bizana","accentcity":"Bizana","region":5.0,"population":"","latitude":-30.8590736,"longitude":29.8538437},
{"country":"za","city":"b.k. mond","accentcity":"B.K. Mond","region":5.0,"population":"","latitude":-31.96608,"longitude":26.4724522},
{"country":"za","city":"blaauboskom","accentcity":"Blaauboskom","region":8.0,"population":"","latitude":-30.3166676,"longitude":20.0166664},
{"country":"za","city":"blaauwater","accentcity":"Blaauwater","region":5.0,"population":"","latitude":-31.5147266,"longitude":26.17025},
{"country":"za","city":"blaauwberg","accentcity":"Blaauwberg","region":9.0,"population":"","latitude":-23.1394386,"longitude":28.99797},
{"country":"za","city":"blaauwbosch","accentcity":"Blaauwbosch","region":2.0,"population":"","latitude":-27.8020973,"longitude":30.0863514},
{"country":"za","city":"blaauwbosch laagte","accentcity":"Blaauwbosch Laagte","region":2.0,"population":"","latitude":-27.8020973,"longitude":30.0863514},
{"country":"za","city":"blaauwdrift","accentcity":"Blaauwdrift","region":3.0,"population":"","latitude":-28.1174374,"longitude":26.7234383},
{"country":"za","city":"blaauwhak","accentcity":"Blaauwhak","region":9.0,"population":"","latitude":-23.2666664,"longitude":29.45},
{"country":"za","city":"blaauwkrantz","accentcity":"Blaauwkrantz","region":2.0,"population":"","latitude":-28.85,"longitude":29.85},
{"country":"za","city":"blaauwkrantz","accentcity":"Blaauwkrantz","region":8.0,"population":"","latitude":-30.9970417,"longitude":22.2328053},
{"country":"za","city":"blaauwskop","accentcity":"Blaauwskop","region":5.0,"population":"","latitude":-31.5833321,"longitude":25.5666676},
{"country":"za","city":"blackburn","accentcity":"Blackburn","region":2.0,"population":"","latitude":-28.9570751,"longitude":31.5233154},
{"country":"za","city":"blackfontein","accentcity":"Blackfontein","region":5.0,"population":"","latitude":-30.45311,"longitude":28.3468342},
{"country":"za","city":"black fountain","accentcity":"Black Fountain","region":5.0,"population":"","latitude":-30.45311,"longitude":28.3468342},
{"country":"za","city":"blackheath","accentcity":"Blackheath","region":6.0,"population":"","latitude":-26.1346455,"longitude":27.9710655},
{"country":"za","city":"black hill","accentcity":"Black Hill","region":5.0,"population":"","latitude":-32.80851,"longitude":28.0255051},
{"country":"za","city":"blackmoor","accentcity":"Blackmoor","region":2.0,"population":"","latitude":-29.8833332,"longitude":29.45},
{"country":"za","city":"black rock","accentcity":"Black Rock","region":5.0,"population":"","latitude":-32.0166664,"longitude":29.1},
{"country":"za","city":"black streams","accentcity":"Black Streams","region":5.0,"population":"","latitude":-31.6365433,"longitude":26.8385773},
{"country":"za","city":"blackwoods","accentcity":"Blackwoods","region":5.0,"population":"","latitude":-31.9526634,"longitude":26.8368454},
{"country":"za","city":"bladgrond","accentcity":"Bladgrond","region":8.0,"population":"","latitude":-28.8333321,"longitude":19.85},
{"country":"za","city":"bladgrond-noord","accentcity":"Bladgrond-Noord","region":8.0,"population":"","latitude":-28.8333321,"longitude":19.85},
{"country":"za","city":"blanco","accentcity":"Blanco","region":3.0,"population":"","latitude":-30.0063972,"longitude":26.6493034},
{"country":"za","city":"blanco","accentcity":"Blanco","region":11.0,"population":"","latitude":-33.9464149,"longitude":22.41153},
{"country":"za","city":"bland's drift","accentcity":"Bland's Drift","region":11.0,"population":"","latitude":-34.14035,"longitude":21.7335358},
{"country":"za","city":"blarney","accentcity":"Blarney","region":2.0,"population":"","latitude":-29.85,"longitude":30.2166672},
{"country":"za","city":"blaufontein","accentcity":"Blaufontein","region":5.0,"population":"","latitude":-31.0666676,"longitude":25.9},
{"country":"za","city":"blauwvlei","accentcity":"Blauwvlei","region":11.0,"population":"","latitude":-33.6593246,"longitude":19.03523},
{"country":"za","city":"blekana","accentcity":"Blekana","region":5.0,"population":"","latitude":-30.7703285,"longitude":28.6044655},
{"country":"za","city":"blenheim","accentcity":"Blenheim","region":5.0,"population":"","latitude":-31.6009274,"longitude":26.60669},
{"country":"za","city":"blesbok","accentcity":"Blesbok","region":7.0,"population":"","latitude":-26.0,"longitude":29.45},
{"country":"za","city":"blesbokfontein","accentcity":"Blesbokfontein","region":3.0,"population":"","latitude":-29.5582,"longitude":25.7653751},
{"country":"za","city":"blesbokhoek","accentcity":"Blesbokhoek","region":8.0,"population":"","latitude":-30.5166664,"longitude":18.25},
{"country":"za","city":"blesboklaagte","accentcity":"Blesboklaagte","region":7.0,"population":"","latitude":-26.1166668,"longitude":29.1666679},
{"country":"za","city":"blesmerrie","accentcity":"Blesmerrie","region":11.0,"population":"","latitude":-32.777153,"longitude":19.9943256},
{"country":"za","city":"blignautrus","accentcity":"Blignautrus","region":6.0,"population":"","latitude":-26.4137077,"longitude":27.9450779},
{"country":"za","city":"blikana","accentcity":"Blikana","region":5.0,"population":"","latitude":-30.5666676,"longitude":27.6166668},
{"country":"za","city":"blinkklip","accentcity":"Blinkklip","region":8.0,"population":"","latitude":-30.9333324,"longitude":21.9833336},
{"country":"za","city":"blinkpan","accentcity":"Blinkpan","region":7.0,"population":"","latitude":-26.08266,"longitude":29.4331436},
{"country":"za","city":"bloedfontein","accentcity":"Bloedfontein","region":7.0,"population":"","latitude":-25.05,"longitude":28.9166679},
{"country":"za","city":"bloedrivier","accentcity":"Bloedrivier","region":9.0,"population":"","latitude":-23.8199387,"longitude":29.3772259},
{"country":"za","city":"bloegomhof","accentcity":"Bloegomhof","region":5.0,"population":"","latitude":-30.7426014,"longitude":28.3326187},
{"country":"za","city":"bloekomhof","accentcity":"Bloekomhof","region":5.0,"population":"","latitude":-30.7426014,"longitude":28.3326187},
{"country":"za","city":"bloekomhoogte","accentcity":"Bloekomhoogte","region":8.0,"population":"","latitude":-30.1224957,"longitude":21.0035152},
{"country":"za","city":"bloemendal","accentcity":"Bloemendal","region":2.0,"population":"","latitude":-27.8355389,"longitude":31.0654545},
{"country":"za","city":"bloemendal","accentcity":"Bloemendal","region":5.0,"population":"","latitude":-30.984684,"longitude":26.1519985},
{"country":"za","city":"bloemendat","accentcity":"Bloemendat","region":3.0,"population":"","latitude":-30.3209229,"longitude":26.7652225},
{"country":"za","city":"bloemfontein","accentcity":"Bloemfontein","region":3.0,"population":463084.0,"latitude":-29.1210651,"longitude":26.2140026},
{"country":"za","city":"brixton","accentcity":"Brixton","region":6.0,"population":"","latitude":-26.19143,"longitude":28.0003777},
{"country":"za","city":"broadlands","accentcity":"Broadlands","region":5.0,"population":"","latitude":-31.9118462,"longitude":26.6808624},
{"country":"za","city":"broadlands","accentcity":"Broadlands","region":9.0,"population":"","latitude":-24.0833321,"longitude":29.45},
{"country":"za","city":"broedersdraai","accentcity":"Broedersdraai","region":9.0,"population":"","latitude":-23.9666672,"longitude":29.95},
{"country":"za","city":"broedersput","accentcity":"Broedersput","region":10.0,"population":"","latitude":-26.8199215,"longitude":25.1057529},
{"country":"za","city":"broham","accentcity":"Broham","region":7.0,"population":"","latitude":-25.44954,"longitude":30.8718548},
{"country":"za","city":"bromfield","accentcity":"Bromfield","region":7.0,"population":"","latitude":-26.8664627,"longitude":29.4697437},
{"country":"za","city":"bromley","accentcity":"Bromley","region":5.0,"population":"","latitude":-31.7993,"longitude":26.71594},
{"country":"za","city":"bromona","accentcity":"Bromona","region":6.0,"population":"","latitude":-25.6833324,"longitude":28.3166676},
{"country":"za","city":"bronkhorstspruit","accentcity":"Bronkhorstspruit","region":6.0,"population":27343.0,"latitude":-25.8101521,"longitude":28.7424831},
{"country":"za","city":"broodsnyersplaas","accentcity":"Broodsnyersplaas","region":7.0,"population":"","latitude":-26.0575485,"longitude":29.4861183},
{"country":"za","city":"brookes","accentcity":"Brookes","region":2.0,"population":"","latitude":-29.6166668,"longitude":29.7666664},
{"country":"za","city":"brooke's store","accentcity":"Brooke's Store","region":2.0,"population":"","latitude":-29.6166668,"longitude":29.7666664},
{"country":"za","city":"brookland","accentcity":"Brookland","region":2.0,"population":"","latitude":-30.5588589,"longitude":29.7844963},
{"country":"za","city":"brooklands","accentcity":"Brooklands","region":2.0,"population":"","latitude":-30.517664,"longitude":30.1715832},
{"country":"za","city":"brooklands","accentcity":"Brooklands","region":11.0,"population":"","latitude":-34.172863,"longitude":18.4007225},
{"country":"za","city":"brooklyn","accentcity":"Brooklyn","region":2.0,"population":"","latitude":-28.9190216,"longitude":31.3310051},
{"country":"za","city":"brooklyn","accentcity":"Brooklyn","region":5.0,"population":"","latitude":-31.0874424,"longitude":25.827177},
{"country":"za","city":"brooklyn","accentcity":"Brooklyn","region":6.0,"population":"","latitude":-25.7653866,"longitude":28.2413883},
{"country":"za","city":"brooklyn","accentcity":"Brooklyn","region":11.0,"population":"","latitude":-33.90982,"longitude":18.4819775},
{"country":"za","city":"brooksby","accentcity":"Brooksby","region":10.0,"population":"","latitude":-26.2555981,"longitude":25.6699886},
{"country":"za","city":"brooks nek","accentcity":"Brooks Nek","region":2.0,"population":"","latitude":-30.6504288,"longitude":29.4873829},
{"country":"za","city":"brookwood","accentcity":"Brookwood","region":11.0,"population":"","latitude":-34.1,"longitude":18.4},
{"country":"za","city":"brospan","accentcity":"Brospan","region":8.0,"population":"","latitude":-30.3962784,"longitude":21.0110188},
{"country":"za","city":"broteni","accentcity":"Broteni","region":2.0,"population":"","latitude":-29.6333332,"longitude":29.7},
{"country":"za","city":"broughton","accentcity":"Broughton","region":5.0,"population":"","latitude":-31.2821388,"longitude":26.5696545},
{"country":"za","city":"brownridge","accentcity":"Brownridge","region":9.0,"population":"","latitude":-24.95,"longitude":28.1},
{"country":"za","city":"brown stones","accentcity":"Brown Stones","region":2.0,"population":"","latitude":-29.19655,"longitude":29.9838066},
{"country":"za","city":"brown's vale","accentcity":"Brown's Vale","region":5.0,"population":"","latitude":-32.5666656,"longitude":26.5333328},
{"country":"za","city":"bruinklip","accentcity":"Bruinklip","region":5.0,"population":"","latitude":-33.7791634,"longitude":23.6087646},
{"country":"za","city":"bruintjiesrivier","accentcity":"Bruintjiesrivier","region":11.0,"population":"","latitude":-33.9839439,"longitude":20.2372684},
{"country":"za","city":"bruntville","accentcity":"Bruntville","region":2.0,"population":"","latitude":-29.2218857,"longitude":30.0135574},
{"country":"za","city":"brussel","accentcity":"Brussel","region":8.0,"population":"","latitude":-29.3029022,"longitude":21.2488937},
{"country":"za","city":"bruyns hill","accentcity":"Bruyns Hill","region":2.0,"population":"","latitude":-29.4477882,"longitude":30.6548119},
{"country":"za","city":"brvnavon","accentcity":"Brvnavon","region":5.0,"population":"","latitude":-30.5833321,"longitude":26.3166676},
{"country":"za","city":"bryanston","accentcity":"Bryanston","region":6.0,"population":"","latitude":-26.0521069,"longitude":28.0280514},
{"country":"za","city":"brymac","accentcity":"Brymac","region":5.0,"population":"","latitude":-31.9563122,"longitude":27.0330315},
{"country":"za","city":"buampsa","accentcity":"Buampsa","region":10.0,"population":"","latitude":-25.5833321,"longitude":27.1833324},
{"country":"za","city":"bucale","accentcity":"Bucale","region":5.0,"population":"","latitude":-31.4981461,"longitude":29.6168766},
{"country":"za","city":"bucele","accentcity":"Bucele","region":5.0,"population":"","latitude":-31.4981461,"longitude":29.6168766},
{"country":"za","city":"buchele","accentcity":"Buchele","region":5.0,"population":"","latitude":-31.4981461,"longitude":29.6168766},
{"country":"za","city":"buchuberg irrigation settlement","accentcity":"Buchuberg Irrigation Settlement","region":8.0,"population":"","latitude":-28.75,"longitude":21.8333321},
{"country":"za","city":"buchufontein","accentcity":"Buchufontein","region":8.0,"population":"","latitude":-30.2436543,"longitude":19.5867233},
{"country":"za","city":"bucklands","accentcity":"Bucklands","region":8.0,"population":"","latitude":-29.0666676,"longitude":23.6833324},
{"country":"za","city":"bucklands farm","accentcity":"Bucklands Farm","region":2.0,"population":"","latitude":-29.5943489,"longitude":29.5829144},
{"country":"za","city":"bucklands-nedersetting","accentcity":"Bucklands-Nedersetting","region":8.0,"population":"","latitude":-29.0666676,"longitude":23.6833324},
{"country":"za","city":"bucklands settlement","accentcity":"Bucklands Settlement","region":8.0,"population":"","latitude":-29.0666676,"longitude":23.6833324},
{"country":"za","city":"bucklegraf","accentcity":"Bucklegraf","region":8.0,"population":"","latitude":-29.1890736,"longitude":22.1969738},
{"country":"za","city":"buckquoy","accentcity":"Buckquoy","region":2.0,"population":"","latitude":-29.7493172,"longitude":29.76805},
{"country":"za","city":"buffalo","accentcity":"Buffalo","region":5.0,"population":"","latitude":-33.0190926,"longitude":27.8507462},
{"country":"za","city":"buffalo harbor","accentcity":"Buffalo Harbor","region":5.0,"population":"","latitude":-33.0310936,"longitude":27.9098511},
{"country":"za","city":"buffalo neck","accentcity":"Buffalo Neck","region":5.0,"population":"","latitude":-30.8377247,"longitude":28.8842144},
{"country":"za","city":"buffalo nek","accentcity":"Buffalo Nek","region":5.0,"population":"","latitude":-30.8377247,"longitude":28.8842144},
{"country":"za","city":"buffalo thorns","accentcity":"Buffalo Thorns","region":5.0,"population":"","latitude":-31.613039,"longitude":26.9058743},
{"country":"za","city":"buffeljags river","accentcity":"Buffeljags River","region":11.0,"population":"","latitude":-34.0460472,"longitude":20.52687},
{"country":"za","city":"buffeljagsrivier","accentcity":"Buffeljagsrivier","region":11.0,"population":"","latitude":-34.0460472,"longitude":20.52687},
{"country":"za","city":"buffelsbaai","accentcity":"Buffelsbaai","region":11.0,"population":"","latitude":-34.086853,"longitude":22.97356},
{"country":"za","city":"buffelsbadden","accentcity":"Buffelsbadden","region":5.0,"population":"","latitude":-30.715395,"longitude":26.7145176},
{"country":"za","city":"buffelsdoorn","accentcity":"Buffelsdoorn","region":5.0,"population":"","latitude":-31.6,"longitude":27.05},
{"country":"za","city":"buffelsdoring","accentcity":"Buffelsdoring","region":5.0,"population":"","latitude":-31.5886116,"longitude":26.9408932},
{"country":"za","city":"buffelsdrif","accentcity":"Buffelsdrif","region":9.0,"population":"","latitude":-25.2,"longitude":28.5166664},
{"country":"za","city":"buffelsdrif","accentcity":"Buffelsdrif","region":11.0,"population":"","latitude":-33.7174759,"longitude":22.7798},
{"country":"za","city":"buffelsdrift","accentcity":"Buffelsdrift","region":11.0,"population":"","latitude":-33.7174759,"longitude":22.7798},
{"country":"za","city":"buffelsfontein","accentcity":"Buffelsfontein","region":10.0,"population":"","latitude":-26.9214649,"longitude":26.81751},
{"country":"za","city":"content","accentcity":"Content","region":8.0,"population":"","latitude":-28.2333336,"longitude":24.85},
{"country":"za","city":"contest","accentcity":"Contest","region":3.0,"population":"","latitude":-29.3581867,"longitude":26.7330151},
{"country":"za","city":"conubie mouth","accentcity":"Conubie Mouth","region":5.0,"population":"","latitude":-32.94433,"longitude":28.0149555},
{"country":"za","city":"convention","accentcity":"Convention","region":2.0,"population":"","latitude":-30.3386974,"longitude":29.2574387},
{"country":"za","city":"conway","accentcity":"Conway","region":5.0,"population":"","latitude":-31.7338428,"longitude":25.3023148},
{"country":"za","city":"conway","accentcity":"Conway","region":10.0,"population":"","latitude":-26.0701389,"longitude":23.20649},
{"country":"za","city":"cookhouse","accentcity":"Cookhouse","region":5.0,"population":"","latitude":-32.74322,"longitude":25.80037},
{"country":"za","city":"coolgardie","accentcity":"Coolgardie","region":2.0,"population":"","latitude":-30.29891,"longitude":30.481657},
{"country":"za","city":"cooperdale","accentcity":"Cooperdale","region":2.0,"population":"","latitude":-30.5042057,"longitude":29.5672855},
{"country":"za","city":"cooperdale","accentcity":"Cooperdale","region":5.0,"population":"","latitude":-32.15,"longitude":28.9666672},
{"country":"za","city":"copenhagen","accentcity":"Copenhagen","region":3.0,"population":"","latitude":-30.048811,"longitude":26.75299},
{"country":"za","city":"copperton","accentcity":"Copperton","region":8.0,"population":"","latitude":-29.9230614,"longitude":22.3044262},
{"country":"za","city":"corbetts hope","accentcity":"Corbetts Hope","region":5.0,"population":"","latitude":-30.6166668,"longitude":26.35},
{"country":"za","city":"cornationweg","accentcity":"Cornationweg","region":2.0,"population":"","latitude":-27.677145,"longitude":31.06091},
{"country":"za","city":"cornelia","accentcity":"Cornelia","region":3.0,"population":"","latitude":-27.2322655,"longitude":28.8522587},
{"country":"za","city":"cornelia","accentcity":"Cornelia","region":9.0,"population":"","latitude":-23.7166672,"longitude":29.1333332},
{"country":"za","city":"cornetspruit","accentcity":"Cornetspruit","region":3.0,"population":"","latitude":-30.2666664,"longitude":27.3},
{"country":"za","city":"cornflats","accentcity":"Cornflats","region":3.0,"population":"","latitude":-29.0384521,"longitude":27.0672951},
{"country":"za","city":"coromandel","accentcity":"Coromandel","region":7.0,"population":"","latitude":-25.2333336,"longitude":30.35},
{"country":"za","city":"coronation colliery","accentcity":"Coronation Colliery","region":2.0,"population":"","latitude":-27.6666679,"longitude":31.05},
{"country":"za","city":"coronation","accentcity":"Coronation","region":2.0,"population":"","latitude":-27.6666679,"longitude":31.05},
{"country":"za","city":"coronation road","accentcity":"Coronation Road","region":2.0,"population":"","latitude":-27.677145,"longitude":31.06091},
{"country":"za","city":"corsham","accentcity":"Corsham","region":10.0,"population":"","latitude":-26.7596722,"longitude":23.0607834},
{"country":"za","city":"costmore","accentcity":"Costmore","region":2.0,"population":"","latitude":-29.7333336,"longitude":29.6},
{"country":"za","city":"cotswold","accentcity":"Cotswold","region":5.0,"population":"","latitude":-33.93885,"longitude":25.5475388},
{"country":"za","city":"cottonend","accentcity":"Cottonend","region":10.0,"population":"","latitude":-27.2092743,"longitude":23.4630165},
{"country":"za","city":"cotyeni","accentcity":"Cotyeni","region":5.0,"population":"","latitude":-31.9666672,"longitude":27.8333321},
{"country":"za","city":"couperdale","accentcity":"Couperdale","region":2.0,"population":"","latitude":-30.5042057,"longitude":29.5672855},
{"country":"za","city":"covie","accentcity":"Covie","region":11.0,"population":"","latitude":-33.9613228,"longitude":23.6013718},
{"country":"za","city":"coville","accentcity":"Coville","region":5.0,"population":"","latitude":-30.6217957,"longitude":27.1265011},
{"country":"za","city":"covington","accentcity":"Covington","region":2.0,"population":"","latitude":-28.7652225,"longitude":31.5597572},
{"country":"za","city":"cradock","accentcity":"Cradock","region":5.0,"population":32900.0,"latitude":-32.1642227,"longitude":25.6191769},
{"country":"za","city":"crafthole","accentcity":"Crafthole","region":10.0,"population":"","latitude":-26.4215736,"longitude":24.1428242},
{"country":"za","city":"craighall","accentcity":"Craighall","region":6.0,"population":"","latitude":-26.1166668,"longitude":28.0166664},
{"country":"za","city":"craighall park","accentcity":"Craighall Park","region":6.0,"population":"","latitude":-26.1252842,"longitude":28.02382},
{"country":"za","city":"craighouse","accentcity":"Craighouse","region":9.0,"population":"","latitude":-22.9833336,"longitude":30.3666668},
{"country":"za","city":"craig side","accentcity":"Craig Side","region":2.0,"population":"","latitude":-29.9833336,"longitude":30.3},
{"country":"za","city":"cransmoor","accentcity":"Cransmoor","region":5.0,"population":"","latitude":-30.8402138,"longitude":28.2015038},
{"country":"za","city":"cranswick","accentcity":"Cranswick","region":2.0,"population":"","latitude":-30.3407688,"longitude":30.2202854},
{"country":"za","city":"cravenby","accentcity":"Cravenby","region":11.0,"population":"","latitude":-33.92637,"longitude":18.5935764},
{"country":"za","city":"crawford","accentcity":"Crawford","region":11.0,"population":"","latitude":-33.9785538,"longitude":18.50413},
{"country":"za","city":"crawley","accentcity":"Crawley","region":11.0,"population":"","latitude":-34.13333,"longitude":18.3833332},
{"country":"za","city":"crayfield","accentcity":"Crayfield","region":10.0,"population":"","latitude":-26.8833332,"longitude":23.6},
{"country":"za","city":"creag roy","accentcity":"Creag Roy","region":9.0,"population":"","latitude":-23.836525,"longitude":29.9263668},
{"country":"za","city":"crediton","accentcity":"Crediton","region":5.0,"population":"","latitude":-32.69446,"longitude":28.019558},
{"country":"za","city":"creighton","accentcity":"Creighton","region":2.0,"population":"","latitude":-30.0271969,"longitude":29.8395519},
{"country":"za","city":"cremin","accentcity":"Cremin","region":2.0,"population":"","latitude":-28.446825,"longitude":29.94499},
{"country":"za","city":"crestlands","accentcity":"Crestlands","region":7.0,"population":"","latitude":-26.5964642,"longitude":28.6870346},
{"country":"za","city":"crocodile valley estates","accentcity":"Crocodile Valley Estates","region":7.0,"population":"","latitude":-25.4735584,"longitude":31.0189056},
{"country":"za","city":"crocodilevlei","accentcity":"Crocodilevlei","region":5.0,"population":"","latitude":-31.9868774,"longitude":29.0309753},
{"country":"za","city":"cromwell","accentcity":"Cromwell","region":2.0,"population":"","latitude":-30.2562943,"longitude":29.97713},
{"country":"za","city":"cronjes boomen","accentcity":"Cronjes Boomen","region":10.0,"population":"","latitude":-25.0666676,"longitude":26.55},
{"country":"za","city":"cronjesrust","accentcity":"Cronjesrust","region":3.0,"population":"","latitude":-30.1666679,"longitude":26.95},
{"country":"za","city":"crossroads","accentcity":"Crossroads","region":5.0,"population":"","latitude":-33.16972,"longitude":27.28925},
{"country":"za","city":"crossroads","accentcity":"Crossroads","region":7.0,"population":"","latitude":-25.61122,"longitude":30.27647},
{"country":"za","city":"crossroads","accentcity":"Crossroads","region":11.0,"population":"","latitude":-33.99445,"longitude":18.5959816},
{"country":"za","city":"croston","accentcity":"Croston","region":5.0,"population":"","latitude":-30.8344173,"longitude":26.1352253},
{"country":"za","city":"crown douglas","accentcity":"Crown Douglas","region":6.0,"population":"","latitude":-25.8483334,"longitude":28.9194431},
{"country":"za","city":"croxteth","accentcity":"Croxteth","region":5.0,"population":"","latitude":-30.9548454,"longitude":26.8230457},
{"country":"za","city":"cruachan","accentcity":"Cruachan","region":8.0,"population":"","latitude":-29.9380779,"longitude":21.9188843},
{"country":"za","city":"crystal waters","accentcity":"Crystal Waters","region":2.0,"population":"","latitude":-30.2993088,"longitude":30.1310482},
{"country":"za","city":"cuba","accentcity":"Cuba","region":5.0,"population":"","latitude":-31.85,"longitude":27.5},
{"country":"za","city":"culandoda","accentcity":"Culandoda","region":5.0,"population":"","latitude":-31.6149483,"longitude":28.1030617},
{"country":"za","city":"culemborgpark","accentcity":"Culemborgpark","region":6.0,"population":"","latitude":-26.1800442,"longitude":27.6912632},
{"country":"za","city":"dupperspos","accentcity":"Dupperspos","region":10.0,"population":"","latitude":-26.5232868,"longitude":26.4244823},
{"country":"za","city":"durban","accentcity":"Durban","region":2.0,"population":3120340.0,"latitude":-29.8578968,"longitude":31.0291977},
{"country":"za","city":"d'urban","accentcity":"D'Urban","region":11.0,"population":"","latitude":-33.8415871,"longitude":18.6517944},
{"country":"za","city":"durban mission location","accentcity":"Durban Mission Location","region":5.0,"population":"","latitude":-33.2044563,"longitude":27.1402569},
{"country":"za","city":"durban-noord","accentcity":"Durban-Noord","region":2.0,"population":"","latitude":-29.7822132,"longitude":31.0370216},
{"country":"za","city":"durban north","accentcity":"Durban North","region":2.0,"population":"","latitude":-29.7822132,"longitude":31.0370216},
{"country":"za","city":"durbanville","accentcity":"Durbanville","region":11.0,"population":"","latitude":-33.8415871,"longitude":18.6517944},
{"country":"za","city":"durbanville hills","accentcity":"Durbanville Hills","region":11.0,"population":"","latitude":-33.85006,"longitude":18.6382484},
{"country":"za","city":"durnacol","accentcity":"Durnacol","region":2.0,"population":"","latitude":-28.0491219,"longitude":30.0176315},
{"country":"za","city":"durslade","accentcity":"Durslade","region":2.0,"population":"","latitude":-29.9666672,"longitude":30.4833336},
{"country":"za","city":"du toitskloof","accentcity":"Du Toitskloof","region":11.0,"population":"","latitude":-33.7166672,"longitude":19.15},
{"country":"za","city":"du toitskloot","accentcity":"Du Toitskloot","region":11.0,"population":"","latitude":-33.7166672,"longitude":19.15},
{"country":"za","city":"du toitskraal","accentcity":"Du Toitskraal","region":3.0,"population":"","latitude":-29.8534966,"longitude":26.0549088},
{"country":"za","city":"du toitsrus","accentcity":"Du Toitsrus","region":3.0,"population":"","latitude":-29.4484711,"longitude":25.6716537},
{"country":"za","city":"dutton","accentcity":"Dutton","region":10.0,"population":"","latitude":-26.5646362,"longitude":23.0349369},
{"country":"za","city":"dutyini","accentcity":"Dutyini","region":5.0,"population":"","latitude":-30.82491,"longitude":29.2978134},
{"country":"za","city":"duvhapark","accentcity":"Duvhapark","region":7.0,"population":"","latitude":-25.9,"longitude":29.2333336},
{"country":"za","city":"duweiskloof","accentcity":"Duweiskloof","region":9.0,"population":"","latitude":-23.6933937,"longitude":30.1400166},
{"country":"za","city":"duxberry","accentcity":"Duxberry","region":6.0,"population":"","latitude":-26.0735435,"longitude":28.05313},
{"country":"za","city":"dwaalboom","accentcity":"Dwaalboom","region":9.0,"population":"","latitude":-24.72466,"longitude":26.8122787},
{"country":"za","city":"dwaleni","accentcity":"Dwaleni","region":5.0,"population":"","latitude":-31.7194748,"longitude":28.4330177},
{"country":"za","city":"dwaleni","accentcity":"Dwaleni","region":7.0,"population":"","latitude":-25.3597488,"longitude":31.1003227},
{"country":"za","city":"dwarsfontein","accentcity":"Dwarsfontein","region":7.0,"population":"","latitude":-26.0332756,"longitude":28.7947884},
{"country":"za","city":"dwarsfontein","accentcity":"Dwarsfontein","region":9.0,"population":"","latitude":-24.6833324,"longitude":27.05},
{"country":"za","city":"dwarskersbos","accentcity":"Dwarskersbos","region":11.0,"population":"","latitude":-32.6959267,"longitude":18.22973},
{"country":"za","city":"dwarskersenbosch","accentcity":"Dwarskersenbosch","region":11.0,"population":"","latitude":-32.6959267,"longitude":18.22973},
{"country":"za","city":"dwarsloop","accentcity":"Dwarsloop","region":9.0,"population":"","latitude":-24.7945557,"longitude":31.10277},
{"country":"za","city":"dwarsrand","accentcity":"Dwarsrand","region":2.0,"population":"","latitude":-27.5239964,"longitude":31.4297142},
{"country":"za","city":"dwars river","accentcity":"Dwars River","region":9.0,"population":"","latitude":-23.45,"longitude":29.75},
{"country":"za","city":"dwarsrivier","accentcity":"Dwarsrivier","region":9.0,"population":"","latitude":-23.45,"longitude":29.75},
{"country":"za","city":"dwarsvlei","accentcity":"Dwarsvlei","region":8.0,"population":"","latitude":-27.46924,"longitude":23.9076557},
{"country":"za","city":"dwashiwa","accentcity":"Dwashiwa","region":2.0,"population":"","latitude":-30.55655,"longitude":30.2763882},
{"country":"za","city":"dwesa","accentcity":"Dwesa","region":5.0,"population":"","latitude":-32.2833328,"longitude":28.7833328},
{"country":"za","city":"dweshula","accentcity":"Dweshula","region":2.0,"population":"","latitude":-30.55655,"longitude":30.2763882},
{"country":"za","city":"dwessa","accentcity":"Dwessa","region":5.0,"population":"","latitude":-32.2833328,"longitude":28.7833328},
{"country":"za","city":"dyamala","accentcity":"Dyamala","region":5.0,"population":"","latitude":-32.2025032,"longitude":26.76385},
{"country":"za","city":"dyam-dyam","accentcity":"Dyam-Dyam","region":5.0,"population":"","latitude":-33.20704,"longitude":27.5368023},
{"country":"za","city":"dyashi","accentcity":"Dyashi","region":5.0,"population":"","latitude":-32.5368042,"longitude":28.48132},
{"country":"za","city":"dyivini","accentcity":"Dyivini","region":5.0,"population":"","latitude":-31.07089,"longitude":29.20167},
{"country":"za","city":"dyobhudaka","accentcity":"Dyobhudaka","region":5.0,"population":"","latitude":-31.1,"longitude":27.1666679},
{"country":"za","city":"dysseldorp","accentcity":"Dysseldorp","region":11.0,"population":"","latitude":-33.5756454,"longitude":22.4439144},
{"country":"za","city":"dysselsdorp","accentcity":"Dysselsdorp","region":11.0,"population":"","latitude":-33.5756454,"longitude":22.4439144},
{"country":"za","city":"dysselsrust","accentcity":"Dysselsrust","region":3.0,"population":"","latitude":-29.1945152,"longitude":26.1100464},
{"country":"za","city":"dyushu","accentcity":"Dyushu","region":5.0,"population":"","latitude":-32.3617859,"longitude":28.0483551},
{"country":"za","city":"dzanani","accentcity":"Dzanani","region":9.0,"population":"","latitude":-22.8833332,"longitude":30.1666679},
{"country":"za","city":"dzarani","accentcity":"Dzarani","region":9.0,"population":"","latitude":-22.8833332,"longitude":30.1666679},
{"country":"za","city":"dzindi","accentcity":"Dzindi","region":9.0,"population":"","latitude":-23.0143623,"longitude":30.4209538},
{"country":"za","city":"dzuweni","accentcity":"Dzuweni","region":7.0,"population":"","latitude":-25.3448811,"longitude":31.9454861},
{"country":"za","city":"dzwerani","accentcity":"Dzwerani","region":9.0,"population":"","latitude":-23.0654583,"longitude":30.433094},
{"country":"za","city":"east bank","accentcity":"East Bank","region":5.0,"population":"","latitude":-33.5833321,"longitude":25.8833332},
{"country":"za","city":"east end","accentcity":"East End","region":10.0,"population":"","latitude":-26.1333332,"longitude":26.1833324},
{"country":"za","city":"eastlands","accentcity":"Eastlands","region":5.0,"population":"","latitude":-30.50903,"longitude":29.8277473},
{"country":"za","city":"eastleigh","accentcity":"Eastleigh","region":10.0,"population":"","latitude":-26.9802322,"longitude":26.6727161},
{"country":"za","city":"east london","accentcity":"East London","region":5.0,"population":421562.0,"latitude":-33.01105,"longitude":27.91005},
{"country":"za","city":"eastlyn","accentcity":"Eastlyn","region":2.0,"population":"","latitude":-30.00956,"longitude":30.01053},
{"country":"za","city":"east lynn","accentcity":"East Lynn","region":2.0,"population":"","latitude":-30.00956,"longitude":30.01053},
{"country":"za","city":"east lynne","accentcity":"East Lynne","region":6.0,"population":"","latitude":-25.7066422,"longitude":28.2777748},
{"country":"za","city":"east village","accentcity":"East Village","region":6.0,"population":"","latitude":-26.3878174,"longitude":27.5148315},
{"country":"za","city":"eastwood","accentcity":"Eastwood","region":6.0,"population":"","latitude":-25.7841663,"longitude":28.30611},
{"country":"za","city":"ebenaeser","accentcity":"Ebenaeser","region":3.0,"population":"","latitude":-30.6,"longitude":25.7333336},
{"country":"za","city":"ebenda","accentcity":"Ebenda","region":5.0,"population":"","latitude":-32.15138,"longitude":28.4601269},
{"country":"za","city":"ebende","accentcity":"Ebende","region":5.0,"population":"","latitude":-32.15138,"longitude":28.4601269},
{"country":"za","city":"eben","accentcity":"Eben","region":3.0,"population":"","latitude":-29.2026081,"longitude":25.9237232},
{"country":"za","city":"ebenezer","accentcity":"Ebenezer","region":5.0,"population":"","latitude":-31.0687275,"longitude":30.1644039},
{"country":"za","city":"folies bergere","accentcity":"Folies Bergere","region":3.0,"population":"","latitude":-29.0276527,"longitude":26.1821136},
{"country":"za","city":"fondwe","accentcity":"Fondwe","region":9.0,"population":"","latitude":-22.9188766,"longitude":30.25545},
{"country":"za","city":"fontainbleau","accentcity":"Fontainbleau","region":6.0,"population":"","latitude":-26.1030235,"longitude":27.9708366},
{"country":"za","city":"fontainebleau","accentcity":"Fontainebleau","region":6.0,"population":"","latitude":-26.1030235,"longitude":27.9708366},
{"country":"za","city":"fontana","accentcity":"Fontana","region":5.0,"population":"","latitude":-31.15624,"longitude":28.1028843},
{"country":"za","city":"fonteinkloof","accentcity":"Fonteinkloof","region":5.0,"population":"","latitude":-30.7365189,"longitude":26.656971},
{"country":"za","city":"fonteinplaas","accentcity":"Fonteinplaas","region":5.0,"population":"","latitude":-31.5158882,"longitude":25.5769844},
{"country":"za","city":"fonteintjie","accentcity":"Fonteintjie","region":3.0,"population":"","latitude":-29.8767014,"longitude":25.8630753},
{"country":"za","city":"fonteintjie","accentcity":"Fonteintjie","region":5.0,"population":"","latitude":-31.4103336,"longitude":25.6433754},
{"country":"za","city":"fordini","accentcity":"Fordini","region":5.0,"population":"","latitude":-32.36132,"longitude":28.2293682},
{"country":"za","city":"fordsburg","accentcity":"Fordsburg","region":6.0,"population":"","latitude":-26.25,"longitude":27.8333321},
{"country":"za","city":"forest hills","accentcity":"Forest Hills","region":2.0,"population":"","latitude":-29.7626324,"longitude":30.8284073},
{"country":"za","city":"forest ranger","accentcity":"Forest Ranger","region":2.0,"population":"","latitude":-29.05,"longitude":29.4},
{"country":"za","city":"forest view","accentcity":"Forest View","region":2.0,"population":"","latitude":-29.9,"longitude":29.7666664},
{"country":"za","city":"forfar","accentcity":"Forfar","region":6.0,"population":"","latitude":-25.7641678,"longitude":28.6122227},
{"country":"za","city":"formosa","accentcity":"Formosa","region":11.0,"population":"","latitude":-34.052742,"longitude":23.3716},
{"country":"za","city":"fort beaufort","accentcity":"Fort Beaufort","region":5.0,"population":58469.0,"latitude":-32.77477,"longitude":26.6337566},
{"country":"za","city":"fort brown","accentcity":"Fort Brown","region":5.0,"population":"","latitude":-33.13333,"longitude":26.6166668},
{"country":"za","city":"fort cox","accentcity":"Fort Cox","region":5.0,"population":"","latitude":-32.76767,"longitude":27.03457},
{"country":"za","city":"fort donald","accentcity":"Fort Donald","region":5.0,"population":"","latitude":-30.7567329,"longitude":29.5571289},
{"country":"za","city":"fort edward","accentcity":"Fort Edward","region":9.0,"population":"","latitude":-23.2,"longitude":30.0166664},
{"country":"za","city":"fort grey","accentcity":"Fort Grey","region":5.0,"population":"","latitude":-33.0311737,"longitude":27.77793},
{"country":"za","city":"fort harrison","accentcity":"Fort Harrison","region":5.0,"population":"","latitude":-31.5666676,"longitude":29.4333324},
{"country":"za","city":"fort hook","accentcity":"Fort Hook","region":5.0,"population":"","latitude":-30.59021,"longitude":27.5959911},
{"country":"za","city":"fort ivor","accentcity":"Fort Ivor","region":5.0,"population":"","latitude":-31.98214,"longitude":27.9374123},
{"country":"za","city":"fort kelly","accentcity":"Fort Kelly","region":3.0,"population":"","latitude":-29.2713585,"longitude":27.00014},
{"country":"za","city":"fort louis","accentcity":"Fort Louis","region":2.0,"population":"","latitude":-28.4118633,"longitude":30.9534187},
{"country":"za","city":"fort malan","accentcity":"Fort Malan","region":5.0,"population":"","latitude":-32.1527634,"longitude":28.52242},
{"country":"za","city":"fort murray","accentcity":"Fort Murray","region":5.0,"population":"","latitude":-32.94088,"longitude":27.4884224},
{"country":"za","city":"fort nottingham","accentcity":"Fort Nottingham","region":2.0,"population":"","latitude":-29.4200859,"longitude":29.90432},
{"country":"za","city":"fort peddie","accentcity":"Fort Peddie","region":8.0,"population":"","latitude":-28.3666668,"longitude":23.95},
{"country":"za","city":"fort warden","accentcity":"Fort Warden","region":5.0,"population":"","latitude":-32.560482,"longitude":28.0069237},
{"country":"za","city":"fort warden outspan","accentcity":"Fort Warden Outspan","region":5.0,"population":"","latitude":-32.560482,"longitude":28.0069237},
{"country":"za","city":"fouriesburg","accentcity":"Fouriesburg","region":3.0,"population":"","latitude":-28.5833321,"longitude":28.1333332},
{"country":"za","city":"fouriespruitpoort","accentcity":"Fouriespruitpoort","region":3.0,"population":"","latitude":-29.6658344,"longitude":26.4139118},
{"country":"za","city":"fourteen streams","accentcity":"Fourteen Streams","region":8.0,"population":"","latitude":-28.0666676,"longitude":24.8833332},
{"country":"za","city":"four ways","accentcity":"Four Ways","region":6.0,"population":"","latitude":-26.0290184,"longitude":27.999382},
{"country":"za","city":"fowlds","accentcity":"Fowlds","region":5.0,"population":"","latitude":-33.5333328,"longitude":26.0666676},
{"country":"za","city":"fowlds halt","accentcity":"Fowlds Halt","region":5.0,"population":"","latitude":-33.5333328,"longitude":26.0666676},
{"country":"za","city":"fraaiuitzicht","accentcity":"Fraaiuitzicht","region":3.0,"population":"","latitude":-28.0932045,"longitude":28.1955948},
{"country":"za","city":"frankfort","accentcity":"Frankfort","region":3.0,"population":38055.0,"latitude":-27.2666664,"longitude":28.4833336},
{"country":"za","city":"frankfort","accentcity":"Frankfort","region":5.0,"population":"","latitude":-32.729847,"longitude":27.46644},
{"country":"za","city":"frankland","accentcity":"Frankland","region":2.0,"population":"","latitude":-30.62243,"longitude":30.3785419},
{"country":"za","city":"franklin","accentcity":"Franklin","region":2.0,"population":"","latitude":-30.3165474,"longitude":29.45216},
{"country":"za","city":"franklins","accentcity":"Franklins","region":2.0,"population":"","latitude":-30.62243,"longitude":30.3785419},
{"country":"za","city":"franklin's store","accentcity":"Franklin's Store","region":2.0,"population":"","latitude":-30.62243,"longitude":30.3785419},
{"country":"za","city":"frankstead","accentcity":"Frankstead","region":5.0,"population":"","latitude":-31.0046921,"longitude":28.3744},
{"country":"za","city":"franschhoek","accentcity":"Franschhoek","region":11.0,"population":"","latitude":-33.91075,"longitude":19.1197987},
{"country":"za","city":"fransenville","accentcity":"Fransenville","region":8.0,"population":"","latitude":-29.7407246,"longitude":21.3404369},
{"country":"za","city":"franshoek","accentcity":"Franshoek","region":3.0,"population":"","latitude":-29.0829163,"longitude":25.7181225},
{"country":"za","city":"franskraal","accentcity":"Franskraal","region":3.0,"population":"","latitude":-29.6917515,"longitude":26.6773987},
{"country":"za","city":"franskraal","accentcity":"Franskraal","region":11.0,"population":"","latitude":-34.6122169,"longitude":19.3838959},
{"country":"za","city":"franskraal noord","accentcity":"Franskraal Noord","region":3.0,"population":"","latitude":-30.1491661,"longitude":26.5008469},
{"country":"za","city":"franskraalstrand","accentcity":"Franskraalstrand","region":11.0,"population":"","latitude":-34.6122169,"longitude":19.3838959},
{"country":"za","city":"fraserburg","accentcity":"Fraserburg","region":8.0,"population":"","latitude":-31.9156551,"longitude":21.5133514},
{"country":"za","city":"fraser","accentcity":"Fraser","region":2.0,"population":"","latitude":-29.5319366,"longitude":31.1675816},
{"country":"za","city":"freedom","accentcity":"Freedom","region":10.0,"population":"","latitude":-25.9466419,"longitude":25.1217518},
{"country":"za","city":"freeland park","accentcity":"Freeland Park","region":2.0,"population":"","latitude":-30.2707138,"longitude":30.759409},
{"country":"za","city":"freemantle","accentcity":"Freemantle","region":5.0,"population":"","latitude":-31.7087517,"longitude":27.1868782},
{"country":"za","city":"frenchbobs","accentcity":"Frenchbobs","region":7.0,"population":"","latitude":-25.7166672,"longitude":31.2833328},
{"country":"za","city":"frenchbobs store","accentcity":"Frenchbobs Store","region":7.0,"population":"","latitude":-25.7166672,"longitude":31.2833328},
{"country":"za","city":"french hoek","accentcity":"French Hoek","region":11.0,"population":"","latitude":-33.91075,"longitude":19.1197987},
{"country":"za","city":"frere","accentcity":"Frere","region":2.0,"population":"","latitude":-28.89129,"longitude":29.7755356},
{"country":"za","city":"fresnave","accentcity":"Fresnave","region":11.0,"population":"","latitude":-33.9240227,"longitude":18.3871746},
{"country":"za","city":"green point","accentcity":"Green Point","region":11.0,"population":"","latitude":-33.91001,"longitude":18.4038582},
{"country":"za","city":"green valley","accentcity":"Green Valley","region":7.0,"population":"","latitude":-24.5985222,"longitude":31.0211582},
{"country":"za","city":"greenview","accentcity":"Greenview","region":6.0,"population":"","latitude":-25.7313881,"longitude":28.3977776},
{"country":"za","city":"greenwich","accentcity":"Greenwich","region":10.0,"population":"","latitude":-26.1705227,"longitude":23.1105},
{"country":"za","city":"greenwood park","accentcity":"Greenwood Park","region":2.0,"population":"","latitude":-29.7833328,"longitude":31.0166664},
{"country":"za","city":"gregory","accentcity":"Gregory","region":9.0,"population":"","latitude":-22.6446419,"longitude":28.9462643},
{"country":"za","city":"grey hill","accentcity":"Grey Hill","region":8.0,"population":"","latitude":-28.1333332,"longitude":23.9833336},
{"country":"za","city":"greylingstad","accentcity":"Greylingstad","region":7.0,"population":"","latitude":-26.744627,"longitude":28.7444267},
{"country":"za","city":"greys","accentcity":"Greys","region":3.0,"population":"","latitude":-28.6166668,"longitude":28.8166676},
{"country":"za","city":"greystone","accentcity":"Greystone","region":5.0,"population":"","latitude":-31.8996086,"longitude":26.04517},
{"country":"za","city":"greystorie","accentcity":"Greystorie","region":2.0,"population":"","latitude":-29.0719433,"longitude":29.79842},
{"country":"za","city":"greyton","accentcity":"Greyton","region":11.0,"population":"","latitude":-34.0504837,"longitude":19.6088448},
{"country":"za","city":"greytown","accentcity":"Greytown","region":2.0,"population":13912.0,"latitude":-29.0641556,"longitude":30.5927868},
{"country":"za","city":"greyville","accentcity":"Greyville","region":2.0,"population":"","latitude":-29.8333321,"longitude":31.0},
{"country":"za","city":"griebdale","accentcity":"Griebdale","region":5.0,"population":"","latitude":-31.4839725,"longitude":28.6088943},
{"country":"za","city":"griekwastad","accentcity":"Griekwastad","region":8.0,"population":"","latitude":-28.8514061,"longitude":23.2524834},
{"country":"za","city":"griquatown","accentcity":"Griquatown","region":8.0,"population":"","latitude":-28.8514061,"longitude":23.2524834},
{"country":"za","city":"groblerbrug","accentcity":"Groblerbrug","region":9.0,"population":"","latitude":-22.9993935,"longitude":27.9458332},
{"country":"za","city":"groblersbrug","accentcity":"Groblersbrug","region":9.0,"population":"","latitude":-22.9993935,"longitude":27.9458332},
{"country":"za","city":"groblersdal","accentcity":"Groblersdal","region":7.0,"population":"","latitude":-25.1684341,"longitude":29.3941231},
{"country":"za","city":"groblershoop","accentcity":"Groblershoop","region":8.0,"population":"","latitude":-28.89531,"longitude":21.9837818},
{"country":"za","city":"groendal","accentcity":"Groendal","region":8.0,"population":"","latitude":-29.40475,"longitude":22.41759},
{"country":"za","city":"groendal","accentcity":"Groendal","region":11.0,"population":"","latitude":-33.892643,"longitude":19.1005249},
{"country":"za","city":"groen draai","accentcity":"Groen Draai","region":3.0,"population":"","latitude":-28.4332523,"longitude":28.5873585},
{"country":"za","city":"groenedal","accentcity":"Groenedal","region":5.0,"population":"","latitude":-31.6666679,"longitude":27.3666668},
{"country":"za","city":"groenfontein","accentcity":"Groenfontein","region":3.0,"population":"","latitude":-30.072403,"longitude":26.3319263},
{"country":"za","city":"groenfontein","accentcity":"Groenfontein","region":5.0,"population":"","latitude":-31.6393948,"longitude":26.1330013},
{"country":"za","city":"groenfontein","accentcity":"Groenfontein","region":11.0,"population":"","latitude":-33.1084938,"longitude":19.3477573},
{"country":"za","city":"groenkloof","accentcity":"Groenkloof","region":2.0,"population":"","latitude":-27.4166679,"longitude":30.2833328},
{"country":"za","city":"groenkloof","accentcity":"Groenkloof","region":5.0,"population":"","latitude":-31.7808876,"longitude":25.5090561},
{"country":"za","city":"groenpoort","accentcity":"Groenpoort","region":3.0,"population":"","latitude":-30.4162331,"longitude":26.6894112},
{"country":"za","city":"groenpunt","accentcity":"Groenpunt","region":6.0,"population":"","latitude":-26.8263416,"longitude":28.0384426},
{"country":"za","city":"groenpunt","accentcity":"Groenpunt","region":11.0,"population":"","latitude":-33.91001,"longitude":18.4038582},
{"country":"za","city":"groenvlakte","accentcity":"Groenvlakte","region":3.0,"population":"","latitude":-30.0280342,"longitude":26.1091061},
{"country":"za","city":"groenvlei","accentcity":"Groenvlei","region":2.0,"population":"","latitude":-27.4590549,"longitude":30.23027},
{"country":"za","city":"groenvlei","accentcity":"Groenvlei","region":5.0,"population":"","latitude":-31.0210266,"longitude":26.4037819},
{"country":"za","city":"groenvlei","accentcity":"Groenvlei","region":9.0,"population":"","latitude":-24.2666664,"longitude":27.4833336},
{"country":"za","city":"groesbeek","accentcity":"Groesbeek","region":9.0,"population":"","latitude":-23.8666668,"longitude":28.4333324},
{"country":"za","city":"grootberg","accentcity":"Grootberg","region":8.0,"population":"","latitude":-30.2833328,"longitude":17.7333336},
{"country":"za","city":"groot-brakrivier","accentcity":"Groot-Brakrivier","region":11.0,"population":"","latitude":-34.04368,"longitude":22.22574},
{"country":"za","city":"grootdam","accentcity":"Grootdam","region":3.0,"population":"","latitude":-29.3807678,"longitude":26.9203568},
{"country":"za","city":"grootdam","accentcity":"Grootdam","region":5.0,"population":"","latitude":-31.4826088,"longitude":26.20689},
{"country":"za","city":"grootderm","accentcity":"Grootderm","region":8.0,"population":"","latitude":-28.5282383,"longitude":16.61608},
{"country":"za","city":"groot drakenstein","accentcity":"Groot Drakenstein","region":7.0,"population":"","latitude":-26.05,"longitude":29.6833324},
{"country":"za","city":"grootdrink","accentcity":"Grootdrink","region":8.0,"population":"","latitude":-26.4949379,"longitude":22.2787666},
{"country":"za","city":"groot-elandsvlei","accentcity":"Groot-Elandsvlei","region":6.0,"population":"","latitude":-26.1399155,"longitude":27.6703},
{"country":"za","city":"grootfontein","accentcity":"Grootfontein","region":3.0,"population":"","latitude":-29.63352,"longitude":26.2969036},
{"country":"za","city":"grootfontein","accentcity":"Grootfontein","region":11.0,"population":"","latitude":-33.0,"longitude":18.2},
{"country":"za","city":"grootgeluk","accentcity":"Grootgeluk","region":3.0,"population":"","latitude":-29.4493122,"longitude":25.98163},
{"country":"za","city":"grootgewaagd","accentcity":"Grootgewaagd","region":7.0,"population":"","latitude":-26.6610489,"longitude":29.8596725},
{"country":"za","city":"groot highlands","accentcity":"Groot Highlands","region":3.0,"population":"","latitude":-29.85,"longitude":26.55},
{"country":"za","city":"groothoek","accentcity":"Groothoek","region":3.0,"population":"","latitude":-29.2833328,"longitude":26.8666668},
{"country":"za","city":"groothoek","accentcity":"Groothoek","region":9.0,"population":"","latitude":-23.2871475,"longitude":29.3174686},
{"country":"za","city":"groot-jongensfontein","accentcity":"Groot-Jongensfontein","region":11.0,"population":"","latitude":-34.42562,"longitude":21.33995},
{"country":"za","city":"grootjongensfonteinstrand","accentcity":"Grootjongensfonteinstrand","region":11.0,"population":"","latitude":-34.42562,"longitude":21.33995},
{"country":"za","city":"grootkloof","accentcity":"Grootkloof","region":2.0,"population":"","latitude":-27.4166679,"longitude":30.2833328},
{"country":"za","city":"groot-marico","accentcity":"Groot-Marico","region":10.0,"population":"","latitude":-25.5970058,"longitude":26.4172382},
{"country":"za","city":"groot matjiesfontein","accentcity":"Groot Matjiesfontein","region":11.0,"population":"","latitude":-30.5166664,"longitude":18.5333328},
{"country":"za","city":"groot mier","accentcity":"Groot Mier","region":8.0,"population":"","latitude":-26.74213,"longitude":20.33376},
{"country":"za","city":"grootmis","accentcity":"Grootmis","region":8.0,"population":"","latitude":-29.651125,"longitude":17.0842171},
{"country":"za","city":"grootmist","accentcity":"Grootmist","region":8.0,"population":"","latitude":-29.651125,"longitude":17.0842171},
{"country":"za","city":"grootpan","accentcity":"Grootpan","region":7.0,"population":"","latitude":-25.9179573,"longitude":29.9287434},
{"country":"za","city":"grootpan","accentcity":"Grootpan","region":9.0,"population":"","latitude":-22.7652,"longitude":28.8219261},
{"country":"za","city":"grootrivierdrif","accentcity":"Grootrivierdrif","region":5.0,"population":"","latitude":-33.4166679,"longitude":24.6666679},
{"country":"za","city":"hillandale","accentcity":"Hillandale","region":2.0,"population":"","latitude":-29.4,"longitude":31.15},
{"country":"za","city":"hillandale","accentcity":"Hillandale","region":3.0,"population":"","latitude":-29.3333321,"longitude":27.3666668},
{"country":"za","city":"hillary","accentcity":"Hillary","region":2.0,"population":"","latitude":-29.881,"longitude":30.9381733},
{"country":"za","city":"hillbrow","accentcity":"Hillbrow","region":6.0,"population":"","latitude":-26.18921,"longitude":28.0487614},
{"country":"za","city":"hillcrest","accentcity":"Hillcrest","region":2.0,"population":"","latitude":-29.7747459,"longitude":30.76396},
{"country":"za","city":"hillcrest","accentcity":"Hillcrest","region":5.0,"population":"","latitude":-31.8912277,"longitude":26.8148479},
{"country":"za","city":"hillcroft","accentcity":"Hillcroft","region":5.0,"population":"","latitude":-31.4268456,"longitude":26.4130459},
{"country":"za","city":"hillhead","accentcity":"Hillhead","region":5.0,"population":"","latitude":-30.8542175,"longitude":26.62674},
{"country":"za","city":"hillshaven","accentcity":"Hillshaven","region":6.0,"population":"","latitude":-26.3644733,"longitude":27.65808},
{"country":"za","city":"hillside","accentcity":"Hillside","region":2.0,"population":"","latitude":-30.54388,"longitude":29.12716},
{"country":"za","city":"hillside","accentcity":"Hillside","region":5.0,"population":"","latitude":-30.5614223,"longitude":27.5780659},
{"country":"za","city":"hillside","accentcity":"Hillside","region":6.0,"population":"","latitude":-26.2228756,"longitude":27.6216278},
{"country":"za","city":"hillsowen","accentcity":"Hillsowen","region":7.0,"population":"","latitude":-25.59947,"longitude":31.16833},
{"country":"za","city":"hilltop","accentcity":"Hilltop","region":2.0,"population":"","latitude":-29.65,"longitude":29.75},
{"country":"za","city":"hilltop","accentcity":"Hilltop","region":5.0,"population":"","latitude":-30.2177944,"longitude":29.5401344},
{"country":"za","city":"hillview","accentcity":"Hillview","region":5.0,"population":"","latitude":-31.40963,"longitude":27.2119064},
{"country":"za","city":"hillvue","accentcity":"Hillvue","region":5.0,"population":"","latitude":-31.1842747,"longitude":26.00134},
{"country":"za","city":"hilton","accentcity":"Hilton","region":2.0,"population":"","latitude":-29.554533,"longitude":30.3009987},
{"country":"za","city":"hiltonia","accentcity":"Hiltonia","region":6.0,"population":"","latitude":-26.3700466,"longitude":27.7825871},
{"country":"za","city":"hilton road","accentcity":"Hilton Road","region":2.0,"population":"","latitude":-29.554533,"longitude":30.3009987},
{"country":"za","city":"himeville","accentcity":"Himeville","region":2.0,"population":"","latitude":-29.7467442,"longitude":29.5136147},
{"country":"za","city":"hiwahlwazi","accentcity":"Hiwahlwazi","region":5.0,"population":"","latitude":-31.1417,"longitude":29.6490173},
{"country":"za","city":"hkankweni","accentcity":"Hkankweni","region":5.0,"population":"","latitude":-31.107975,"longitude":28.7132111},
{"country":"za","city":"hlaba","accentcity":"Hlaba","region":2.0,"population":"","latitude":-30.4674282,"longitude":30.4107552},
{"country":"za","city":"hlabati","accentcity":"Hlabati","region":5.0,"population":"","latitude":-31.1791019,"longitude":29.1111813},
{"country":"za","city":"hlabatini","accentcity":"Hlabatini","region":5.0,"population":"","latitude":-31.1881447,"longitude":29.7237339},
{"country":"za","city":"hlabatshane","accentcity":"Hlabatshane","region":5.0,"population":"","latitude":-31.72587,"longitude":28.8388271},
{"country":"za","city":"hlabeni","accentcity":"Hlabeni","region":5.0,"population":"","latitude":-32.15,"longitude":28.0833321},
{"country":"za","city":"hlabisa","accentcity":"Hlabisa","region":2.0,"population":"","latitude":-28.1451855,"longitude":31.8771877},
{"country":"za","city":"hlabiti","accentcity":"Hlabiti","region":5.0,"population":"","latitude":-31.1791019,"longitude":29.1111813},
{"country":"za","city":"hlakoane","accentcity":"Hlakoane","region":5.0,"population":"","latitude":-30.2666664,"longitude":28.8},
{"country":"za","city":"hlane","accentcity":"Hlane","region":5.0,"population":"","latitude":-30.9170837,"longitude":29.0598087},
{"country":"za","city":"hlangalane","accentcity":"Hlangalane","region":5.0,"population":"","latitude":-30.9728527,"longitude":28.5833321},
{"country":"za","city":"hlangani","accentcity":"Hlangani","region":5.0,"population":"","latitude":-32.3166656,"longitude":28.3},
{"country":"za","city":"hlangasa","accentcity":"Hlangasa","region":2.0,"population":"","latitude":-28.6564865,"longitude":31.8310757},
{"country":"za","city":"hlani","accentcity":"Hlani","region":5.0,"population":"","latitude":-30.6497421,"longitude":28.9623165},
{"country":"za","city":"hlaniki","accentcity":"Hlaniki","region":9.0,"population":"","latitude":-23.4,"longitude":30.5166664},
{"country":"za","city":"hlanjwa","accentcity":"Hlanjwa","region":5.0,"population":"","latitude":-30.55,"longitude":27.2833328},
{"country":"za","city":"hlankomo","accentcity":"Hlankomo","region":5.0,"population":"","latitude":-30.9020977,"longitude":29.3713951},
{"country":"za","city":"hlapabomvu","accentcity":"Hlapabomvu","region":5.0,"population":"","latitude":-31.2738018,"longitude":29.35958},
{"country":"za","city":"hlauhlau","accentcity":"Hlauhlau","region":7.0,"population":"","latitude":-25.3693752,"longitude":31.1735058},
{"country":"za","city":"hlazakazi","accentcity":"Hlazakazi","region":2.0,"population":"","latitude":-28.3770523,"longitude":30.72123},
{"country":"za","city":"hlobane","accentcity":"Hlobane","region":2.0,"population":"","latitude":-27.71656,"longitude":31.0011215},
{"country":"za","city":"hlobo","accentcity":"Hlobo","region":5.0,"population":"","latitude":-32.0488129,"longitude":28.1936989},
{"country":"za","city":"hlogotlou","accentcity":"Hlogotlou","region":9.0,"population":"","latitude":-25.03718,"longitude":29.7563038},
{"country":"za","city":"hlokozi","accentcity":"Hlokozi","region":2.0,"population":"","latitude":-30.3664188,"longitude":30.2848},
{"country":"za","city":"hlomendlini","accentcity":"Hlomendlini","region":5.0,"population":"","latitude":-30.5833321,"longitude":27.2666664},
{"country":"za","city":"hlomohlomo","accentcity":"Hlomohlomo","region":2.0,"population":"","latitude":-27.7130985,"longitude":31.4923286},
{"country":"za","city":"hluhluwe","accentcity":"Hluhluwe","region":2.0,"population":"","latitude":-28.0333328,"longitude":32.2833328},
{"country":"za","city":"hluku","accentcity":"Hluku","region":2.0,"population":"","latitude":-30.6246452,"longitude":29.9821777},
{"country":"za","city":"hluleka","accentcity":"Hluleka","region":5.0,"population":"","latitude":-31.82523,"longitude":29.3018436},
{"country":"za","city":"hluvukani","accentcity":"Hluvukani","region":9.0,"population":"","latitude":-24.6452827,"longitude":31.3410282},
{"country":"za","city":"hlwahlwazi","accentcity":"Hlwahlwazi","region":5.0,"population":"","latitude":-31.1624146,"longitude":29.6037216},
{"country":"za","city":"hlwanlwazi","accentcity":"Hlwanlwazi","region":5.0,"population":"","latitude":-31.1624146,"longitude":29.6037216},
{"country":"za","city":"hobb's hope","accentcity":"Hobb's Hope","region":10.0,"population":"","latitude":-26.7798576,"longitude":23.3306656},
{"country":"za","city":"hobeni","accentcity":"Hobeni","region":5.0,"population":"","latitude":-32.1666679,"longitude":28.8833332},
{"country":"za","city":"hobhouse","accentcity":"Hobhouse","region":3.0,"population":"","latitude":-29.5271969,"longitude":27.1447182},
{"country":"za","city":"hode","accentcity":"Hode","region":5.0,"population":"","latitude":-30.8238544,"longitude":29.138588},
{"country":"za","city":"hoedjesbaai","accentcity":"Hoedjesbaai","region":11.0,"population":"","latitude":-33.01167,"longitude":17.9442024},
{"country":"za","city":"hoedjes bay","accentcity":"Hoedjes Bay","region":11.0,"population":"","latitude":-33.01167,"longitude":17.9442024},
{"country":"za","city":"hoedspruit","accentcity":"Hoedspruit","region":9.0,"population":"","latitude":-24.3512173,"longitude":30.95332},
{"country":"za","city":"hoekfontein","accentcity":"Hoekfontein","region":3.0,"population":"","latitude":-30.4750938,"longitude":26.9687767},
{"country":"za","city":"hoekfontein","accentcity":"Hoekfontein","region":10.0,"population":"","latitude":-25.6166668,"longitude":27.9166679},
{"country":"za","city":"hoeko","accentcity":"Hoeko","region":11.0,"population":"","latitude":-33.4854546,"longitude":21.3664074},
{"country":"za","city":"jalamba","accentcity":"Jalamba","region":5.0,"population":"","latitude":-32.0333328,"longitude":28.7333336},
{"country":"za","city":"jameson park","accentcity":"Jameson Park","region":6.0,"population":"","latitude":-26.4511566,"longitude":28.4165459},
{"country":"za","city":"jameson's drift","accentcity":"Jameson's Drift","region":2.0,"population":"","latitude":-28.7773552,"longitude":30.8960114},
{"country":"za","city":"jamestown","accentcity":"Jamestown","region":5.0,"population":"","latitude":-31.1210938,"longitude":26.8068657},
{"country":"za","city":"jamestown","accentcity":"Jamestown","region":11.0,"population":"","latitude":-33.9789772,"longitude":18.848877},
{"country":"za","city":"jameyana","accentcity":"Jameyana","region":9.0,"population":"","latitude":-24.6108837,"longitude":31.1255455},
{"country":"za","city":"jane furse","accentcity":"Jane Furse","region":9.0,"population":"","latitude":-24.76021,"longitude":29.8699265},
{"country":"za","city":"jane furse settlement","accentcity":"Jane Furse Settlement","region":9.0,"population":"","latitude":-24.76021,"longitude":29.8699265},
{"country":"za","city":"jan kempdorp","accentcity":"Jan Kempdorp","region":10.0,"population":13485.0,"latitude":-27.9224567,"longitude":24.8305149},
{"country":"za","city":"jan kemp","accentcity":"Jan Kemp","region":10.0,"population":"","latitude":-27.9224567,"longitude":24.8305149},
{"country":"za","city":"jan masibi","accentcity":"Jan Masibi","region":10.0,"population":"","latitude":-25.8040466,"longitude":25.2962742},
{"country":"za","city":"jansenville","accentcity":"Jansenville","region":5.0,"population":"","latitude":-32.9430542,"longitude":24.6721783},
{"country":"za","city":"janseput","accentcity":"Janseput","region":9.0,"population":"","latitude":-23.5666676,"longitude":28.4},
{"country":"za","city":"jantjieshoek","accentcity":"Jantjieshoek","region":7.0,"population":"","latitude":-27.25,"longitude":30.2},
{"country":"za","city":"jeffreysbaai","accentcity":"Jeffreysbaai","region":5.0,"population":"","latitude":-34.0506439,"longitude":24.9194984},
{"country":"za","city":"jeffrey's bay","accentcity":"Jeffrey's Bay","region":5.0,"population":"","latitude":-34.0506439,"longitude":24.9194984},
{"country":"za","city":"jenca","accentcity":"Jenca","region":5.0,"population":"","latitude":-31.2973881,"longitude":28.5649452},
{"country":"za","city":"jengce","accentcity":"Jengce","region":5.0,"population":"","latitude":-31.2973881,"longitude":28.5649452},
{"country":"za","city":"jeppe's reef","accentcity":"Jeppe's Reef","region":7.0,"population":"","latitude":-25.7219734,"longitude":31.4718742},
{"country":"za","city":"jericho","accentcity":"Jericho","region":5.0,"population":"","latitude":-31.507534,"longitude":25.6026134},
{"country":"za","city":"jericho","accentcity":"Jericho","region":10.0,"population":"","latitude":-25.3357468,"longitude":27.8048763},
{"country":"za","city":"jerico","accentcity":"Jerico","region":10.0,"population":"","latitude":-25.3357468,"longitude":27.8048763},
{"country":"za","city":"jobseputs","accentcity":"Jobseputs","region":8.0,"population":"","latitude":-30.5913315,"longitude":20.742012},
{"country":"za","city":"job's town","accentcity":"Job's Town","region":2.0,"population":"","latitude":-27.7333336,"longitude":31.15},
{"country":"za","city":"joewyns park","accentcity":"Joewyns Park","region":5.0,"population":"","latitude":-31.603714,"longitude":26.5445728},
{"country":"za","city":"johannesburg","accentcity":"Johannesburg","region":6.0,"population":2026466.0,"latitude":-26.2051716,"longitude":28.0498142},
{"country":"za","city":"johnniesdale","accentcity":"Johnniesdale","region":8.0,"population":"","latitude":-29.6858654,"longitude":21.31699},
{"country":"za","city":"johnniesluck","accentcity":"Johnniesluck","region":8.0,"population":"","latitude":-29.60085,"longitude":21.6035423},
{"country":"za","city":"johnson's post","accentcity":"Johnson's Post","region":11.0,"population":"","latitude":-34.2823677,"longitude":21.8399334},
{"country":"za","city":"jojweni","accentcity":"Jojweni","region":5.0,"population":"","latitude":-31.6935673,"longitude":27.8571682},
{"country":"za","city":"jokweni","accentcity":"Jokweni","region":2.0,"population":"","latitude":-29.8898659,"longitude":29.7255383},
{"country":"za","city":"jokwenus location","accentcity":"Jokwenus Location","region":5.0,"population":"","latitude":-33.36667,"longitude":27.0833321},
{"country":"za","city":"jolwayo","accentcity":"Jolwayo","region":2.0,"population":"","latitude":-28.7333336,"longitude":30.3333321},
{"country":"za","city":"jonasfontein","accentcity":"Jonasfontein","region":3.0,"population":"","latitude":-29.7491379,"longitude":26.1766853},
{"country":"za","city":"jongensfontein","accentcity":"Jongensfontein","region":11.0,"population":"","latitude":-34.42562,"longitude":21.33995},
{"country":"za","city":"jonkersberg","accentcity":"Jonkersberg","region":11.0,"population":"","latitude":-33.9333344,"longitude":22.2166672},
{"country":"za","city":"jonkersrus","accentcity":"Jonkersrus","region":10.0,"population":"","latitude":-26.25,"longitude":24.9833336},
{"country":"za","city":"jonkerville","accentcity":"Jonkerville","region":7.0,"population":"","latitude":-26.1333332,"longitude":29.7166672},
{"country":"za","city":"josanas hoek","accentcity":"Josanas Hoek","region":5.0,"population":"","latitude":-30.6137123,"longitude":27.36581},
{"country":"za","city":"josefsdeel","accentcity":"Josefsdeel","region":5.0,"population":"","latitude":-30.5815678,"longitude":26.21751},
{"country":"za","city":"josephine","accentcity":"Josephine","region":9.0,"population":"","latitude":-23.9057751,"longitude":30.695015},
{"country":"za","city":"joubertina","accentcity":"Joubertina","region":5.0,"population":"","latitude":-30.86105,"longitude":26.68971},
{"country":"za","city":"joubert","accentcity":"Joubert","region":3.0,"population":"","latitude":-29.25,"longitude":26.15},
{"country":"za","city":"jouberton","accentcity":"Jouberton","region":10.0,"population":"","latitude":-26.8928318,"longitude":26.6001415},
{"country":"za","city":"jouberts kroon","accentcity":"Jouberts Kroon","region":9.0,"population":"","latitude":-23.85,"longitude":29.9833336},
{"country":"za","city":"joubertstroom","accentcity":"Joubertstroom","region":2.0,"population":"","latitude":-29.9833336,"longitude":30.15},
{"country":"za","city":"journey's end","accentcity":"Journey's End","region":2.0,"population":"","latitude":-28.5719776,"longitude":32.250267},
{"country":"za","city":"jozannashoek","accentcity":"Jozannashoek","region":5.0,"population":"","latitude":-30.6137123,"longitude":27.36581},
{"country":"za","city":"jozannas nek","accentcity":"Jozannas Nek","region":5.0,"population":"","latitude":-30.6163368,"longitude":27.3363018},
{"country":"za","city":"jozini","accentcity":"Jozini","region":2.0,"population":"","latitude":-27.4295979,"longitude":32.06658},
{"country":"za","city":"juis soo","accentcity":"Juis Soo","region":3.0,"population":"","latitude":-29.4116268,"longitude":27.2332344},
{"country":"za","city":"juistzoo","accentcity":"Juistzoo","region":3.0,"population":"","latitude":-29.4116268,"longitude":27.2332344},
{"country":"za","city":"jujura","accentcity":"Jujura","region":5.0,"population":"","latitude":-32.379406,"longitude":28.6443844},
{"country":"za","city":"jukfontein","accentcity":"Jukfontein","region":11.0,"population":"","latitude":-32.8,"longitude":19.9666672},
{"country":"za","city":"julesburg","accentcity":"Julesburg","region":9.0,"population":"","latitude":-24.0666676,"longitude":30.3166676},
{"country":"za","city":"julies post","accentcity":"Julies Post","region":3.0,"population":"","latitude":-29.90848,"longitude":26.0949326},
{"country":"za","city":"junction ferry","accentcity":"Junction Ferry","region":5.0,"population":"","latitude":-31.1865749,"longitude":28.6949539},
{"country":"za","city":"jungaan","accentcity":"Jungaan","region":9.0,"population":"","latitude":-22.6666679,"longitude":30.0166664},
{"country":"za","city":"jupiter","accentcity":"Jupiter","region":9.0,"population":"","latitude":-23.8692646,"longitude":29.0311184},
{"country":"za","city":"justicia","accentcity":"Justicia","region":9.0,"population":"","latitude":-24.8800163,"longitude":31.4131584},
{"country":"za","city":"justiesia","accentcity":"Justiesia","region":10.0,"population":"","latitude":-27.2166672,"longitude":25.7166672},
{"country":"za","city":"justitia","accentcity":"Justitia","region":10.0,"population":"","latitude":-27.2166672,"longitude":25.7166672},
{"country":"za","city":"juta","accentcity":"Juta","region":3.0,"population":"","latitude":-30.251152,"longitude":26.667469},
{"country":"za","city":"kaaldraai","accentcity":"Kaaldraai","region":8.0,"population":"","latitude":-28.196434,"longitude":23.9222},
{"country":"za","city":"klaarstroom","accentcity":"Klaarstroom","region":11.0,"population":"","latitude":-33.3312149,"longitude":22.5359249},
{"country":"za","city":"klaarwater","accentcity":"Klaarwater","region":3.0,"population":"","latitude":-29.4809113,"longitude":25.64505},
{"country":"za","city":"klaarwater","accentcity":"Klaarwater","region":8.0,"population":"","latitude":-28.65,"longitude":23.9833336},
{"country":"za","city":"klaasiagersberg","accentcity":"Klaasiagersberg","region":11.0,"population":"","latitude":-34.2368622,"longitude":18.4146938},
{"country":"za","city":"klaasjagersberg","accentcity":"Klaasjagersberg","region":11.0,"population":"","latitude":-34.2368622,"longitude":18.4146938},
{"country":"za","city":"klarer","accentcity":"Klarer","region":11.0,"population":"","latitude":-31.7759266,"longitude":18.62497},
{"country":"za","city":"klaver","accentcity":"Klaver","region":11.0,"population":"","latitude":-31.7759266,"longitude":18.62497},
{"country":"za","city":"klavervlei","accentcity":"Klavervlei","region":8.0,"population":"","latitude":-30.15,"longitude":19.9},
{"country":"za","city":"klawer","accentcity":"Klawer","region":11.0,"population":"","latitude":-31.7759266,"longitude":18.62497},
{"country":"za","city":"kleinbaai","accentcity":"Kleinbaai","region":11.0,"population":"","latitude":-34.61561,"longitude":19.35065},
{"country":"za","city":"kleinberg","accentcity":"Kleinberg","region":8.0,"population":"","latitude":-30.02891,"longitude":21.8355064},
{"country":"za","city":"kleinberg","accentcity":"Kleinberg","region":11.0,"population":"","latitude":-34.180336,"longitude":21.9213371},
{"country":"za","city":"klein bergrivier","accentcity":"Klein Bergrivier","region":11.0,"population":"","latitude":-33.2331123,"longitude":18.9847965},
{"country":"za","city":"kleinbos","accentcity":"Kleinbos","region":5.0,"population":"","latitude":-33.9743233,"longitude":23.8249416},
{"country":"za","city":"klein-brakrivier","accentcity":"Klein-Brakrivier","region":11.0,"population":"","latitude":-34.08286,"longitude":22.1476288},
{"country":"za","city":"klein-brakrivierstrand","accentcity":"Klein-Brakrivierstrand","region":11.0,"population":"","latitude":-34.0870934,"longitude":22.1510811},
{"country":"za","city":"klein camp","accentcity":"Klein Camp","region":5.0,"population":"","latitude":-33.6666679,"longitude":26.2833328},
{"country":"za","city":"kleinchwaing","accentcity":"Kleinchwaing","region":10.0,"population":"","latitude":-26.8833332,"longitude":24.1833324},
{"country":"za","city":"klein-corsham","accentcity":"Klein-Corsham","region":10.0,"population":"","latitude":-26.8036156,"longitude":23.0915051},
{"country":"za","city":"kleindam","accentcity":"Kleindam","region":3.0,"population":"","latitude":-30.1790085,"longitude":26.7995815},
{"country":"za","city":"klein dikgale","accentcity":"Klein Dikgale","region":9.0,"population":"","latitude":-23.8333321,"longitude":29.75},
{"country":"za","city":"klein-drakenstein","accentcity":"Klein-Drakenstein","region":11.0,"population":"","latitude":-33.73492,"longitude":19.0399265},
{"country":"za","city":"klein droehout","accentcity":"Klein Drohout","region":8.0,"population":"","latitude":-29.9789352,"longitude":21.4265461},
{"country":"za","city":"klein elandsvlei","accentcity":"Klein Elandsvlei","region":6.0,"population":"","latitude":-26.15414,"longitude":27.6348476},
{"country":"za","city":"kleinemonde","accentcity":"Kleinemonde","region":5.0,"population":"","latitude":-33.5166664,"longitude":26.9166679},
{"country":"za","city":"kleinfontein","accentcity":"Kleinfontein","region":3.0,"population":"","latitude":-29.3556576,"longitude":26.5551319},
{"country":"za","city":"kleinfontein","accentcity":"Kleinfontein","region":7.0,"population":"","latitude":-24.7166672,"longitude":30.5166664},
{"country":"za","city":"kleinfontein","accentcity":"Kleinfontein","region":11.0,"population":"","latitude":-33.1383057,"longitude":19.6575775},
{"country":"za","city":"kleingeluk","accentcity":"Kleingeluk","region":5.0,"population":"","latitude":-31.2551651,"longitude":26.49139},
{"country":"za","city":"klein gelukpan","accentcity":"Klein Gelukpan","region":8.0,"population":"","latitude":-29.6876621,"longitude":21.94309},
{"country":"za","city":"klein harrow","accentcity":"Klein Harrow","region":10.0,"population":"","latitude":-26.3496189,"longitude":23.2262821},
{"country":"za","city":"kleinheek","accentcity":"Kleinheek","region":3.0,"population":"","latitude":-29.5170135,"longitude":26.707489},
{"country":"za","city":"klein kareepoort","accentcity":"Klein Kareepoort","region":5.0,"population":"","latitude":-30.6615086,"longitude":25.9329834},
{"country":"za","city":"klein","accentcity":"Klein","region":3.0,"population":"","latitude":-29.55,"longitude":25.65},
{"country":"za","city":"klein koegab","accentcity":"Klein Koegab","region":8.0,"population":"","latitude":-29.0666676,"longitude":20.7833328},
{"country":"za","city":"klein-koning","accentcity":"Klein-Koning","region":8.0,"population":"","latitude":-27.6666679,"longitude":23.5666676},
{"country":"za","city":"klein-letaba","accentcity":"Klein-Letaba","region":9.0,"population":"","latitude":-23.1333332,"longitude":30.45},
{"country":"za","city":"klein lowridge","accentcity":"Klein Lowridge","region":3.0,"population":"","latitude":-29.2966423,"longitude":27.2569523},
{"country":"za","city":"klein mayburgsdam","accentcity":"Klein Mayburgsdam","region":5.0,"population":"","latitude":-31.5166664,"longitude":25.7833328},
{"country":"za","city":"klein mier nommer 1","accentcity":"Klein Mier Nommer 1","region":8.0,"population":"","latitude":-26.7390366,"longitude":20.275713},
{"country":"za","city":"klein mier nommer een","accentcity":"Klein Mier Nommer Een","region":8.0,"population":"","latitude":-26.7390366,"longitude":20.275713},
{"country":"za","city":"kleinmonde","accentcity":"Kleinmonde","region":5.0,"population":"","latitude":-33.5417252,"longitude":27.0431786},
{"country":"za","city":"kleinmond","accentcity":"Kleinmond","region":11.0,"population":"","latitude":-34.34094,"longitude":19.0249939},
{"country":"za","city":"kleinmondstrand","accentcity":"Kleinmondstrand","region":11.0,"population":"","latitude":-34.34094,"longitude":19.0249939},
{"country":"za","city":"klein mottelsrivier","accentcity":"Klein Mottelsrivier","region":8.0,"population":"","latitude":-29.4206982,"longitude":21.2998066},
{"country":"za","city":"klein-nourivier","accentcity":"Klein-Nourivier","region":8.0,"population":"","latitude":-30.2146988,"longitude":18.1369152},
{"country":"za","city":"kleinpaarl","accentcity":"Kleinpaarl","region":3.0,"population":"","latitude":-28.2833328,"longitude":28.4},
{"country":"za","city":"kleinplaas","accentcity":"Kleinplaas","region":3.0,"population":"","latitude":-29.4249268,"longitude":25.6241436},
{"country":"za","city":"kleinplaat","accentcity":"Kleinplaat","region":11.0,"population":"","latitude":-33.85069,"longitude":22.6779938},
{"country":"za","city":"kleinplaats","accentcity":"Kleinplaats","region":3.0,"population":"","latitude":-29.4249268,"longitude":25.6241436},
{"country":"za","city":"kleinplaats","accentcity":"Kleinplaats","region":11.0,"population":"","latitude":-33.85069,"longitude":22.6779938},
{"country":"za","city":"kleinpoort","accentcity":"Kleinpoort","region":5.0,"population":"","latitude":-33.3302574,"longitude":24.8820152},
{"country":"za","city":"kleinrivier","accentcity":"Kleinrivier","region":11.0,"population":"","latitude":-33.88333,"longitude":23.1833324},
{"country":"za","city":"klein rosynebos","accentcity":"Klein Rosynebos","region":8.0,"population":"","latitude":-29.0833321,"longitude":20.7833328},
{"country":"za","city":"kleinsee","accentcity":"Kleinsee","region":8.0,"population":"","latitude":-29.6771355,"longitude":17.0709},
{"country":"za","city":"kleinsevenfontein","accentcity":"Kleinsevenfontein","region":3.0,"population":"","latitude":-30.1035671,"longitude":26.4137039},
{"country":"za","city":"klein silwermyn","accentcity":"Klein Silwermyn","region":11.0,"population":"","latitude":-34.1119041,"longitude":18.41062},
{"country":"za","city":"kleinskool","accentcity":"Kleinskool","region":5.0,"population":"","latitude":-33.8492928,"longitude":25.5156765},
{"country":"za","city":"klein springbokoog","accentcity":"Klein Springbokoog","region":8.0,"population":"","latitude":-30.2476234,"longitude":21.5766735},
{"country":"za","city":"klein steenberg","accentcity":"Klein Steenberg","region":11.0,"population":"","latitude":-34.07579,"longitude":18.4262962},
{"country":"za","city":"kleinstraat","accentcity":"Kleinstraat","region":11.0,"population":"","latitude":-33.3979149,"longitude":19.9260426},
{"country":"za","city":"kleinstradt","accentcity":"Kleinstradt","region":3.0,"population":"","latitude":-29.2207565,"longitude":26.1025372},
{"country":"za","city":"klein strydpoort","accentcity":"Klein Strydpoort","region":5.0,"population":"","latitude":-31.4333324,"longitude":25.9666672},
{"country":"za","city":"klein tsamarose","accentcity":"Klein Tsamarose","region":10.0,"population":"","latitude":-27.2986851,"longitude":23.9221935},
{"country":"za","city":"kundulu","accentcity":"Kundulu","region":5.0,"population":"","latitude":-31.8724976,"longitude":27.0881748},
{"country":"za","city":"kunen","accentcity":"Kunen","region":2.0,"population":"","latitude":-28.0333328,"longitude":32.8},
{"country":"za","city":"kungcaca","accentcity":"KuNgcaca","region":5.0,"population":"","latitude":-31.8310566,"longitude":27.70679},
{"country":"za","city":"ku-ngcengane","accentcity":"Ku-Ngcengane","region":5.0,"population":"","latitude":-31.3166676,"longitude":28.3833332},
{"country":"za","city":"kungcoti","accentcity":"KuNgcoti","region":5.0,"population":"","latitude":-30.9990749,"longitude":28.5688839},
{"country":"za","city":"kungcuka","accentcity":"KuNgcuka","region":5.0,"population":"","latitude":-31.7289772,"longitude":27.2553139},
{"country":"za","city":"kungqane","accentcity":"KuNgqane","region":5.0,"population":"","latitude":-30.90547,"longitude":29.4246082},
{"country":"za","city":"kungqovu","accentcity":"KuNgqovu","region":5.0,"population":"","latitude":-31.59557,"longitude":28.4152451},
{"country":"za","city":"kungqungqumbe","accentcity":"KuNgqungqumbe","region":5.0,"population":"","latitude":-32.14197,"longitude":28.8631535},
{"country":"za","city":"kungqutu","accentcity":"KuNgqutu","region":5.0,"population":"","latitude":-32.0774422,"longitude":28.4943275},
{"country":"za","city":"kungqwaru","accentcity":"KuNgqwaru","region":5.0,"population":"","latitude":-31.8455467,"longitude":27.8285656},
{"country":"za","city":"ku-nikwe","accentcity":"Ku-Nikwe","region":5.0,"population":"","latitude":-31.3653564,"longitude":29.6149311},
{"country":"za","city":"kunjemane","accentcity":"KuNjemane","region":5.0,"population":"","latitude":-31.8655472,"longitude":28.3806152},
{"country":"za","city":"ku-njombela","accentcity":"Ku-Njombela","region":5.0,"population":"","latitude":-31.7249336,"longitude":28.3752346},
{"country":"za","city":"kunkazana","accentcity":"KuNkazana","region":5.0,"population":"","latitude":-32.405117,"longitude":28.630373},
{"country":"za","city":"kunkolonga","accentcity":"KuNkolonga","region":5.0,"population":"","latitude":-31.86048,"longitude":27.2616119},
{"country":"za","city":"ku-nkongolo","accentcity":"Ku-Nkongolo","region":5.0,"population":"","latitude":-31.2001381,"longitude":29.4828873},
{"country":"za","city":"kunkumba","accentcity":"KuNkumba","region":5.0,"population":"","latitude":-32.04378,"longitude":29.0348072},
{"country":"za","city":"kunkundla","accentcity":"KuNkundla","region":5.0,"population":"","latitude":-30.9434242,"longitude":29.7132549},
{"country":"za","city":"kunkunzimbini","accentcity":"KuNkunzimbini","region":5.0,"population":"","latitude":-31.7900257,"longitude":29.02358},
{"country":"za","city":"ku-nokana","accentcity":"Ku-Nokana","region":5.0,"population":"","latitude":-31.8001652,"longitude":28.7307911},
{"country":"za","city":"kunomadamba","accentcity":"KuNomadamba","region":5.0,"population":"","latitude":-31.7169647,"longitude":27.7714157},
{"country":"za","city":"ku-nomadambe","accentcity":"Ku-Nomadambe","region":5.0,"population":"","latitude":-31.61699,"longitude":27.70652},
{"country":"za","city":"ku-nomadolo","accentcity":"Ku-Nomadolo","region":5.0,"population":"","latitude":-31.2847233,"longitude":28.6478024},
{"country":"za","city":"kunomadolo","accentcity":"KuNomadolo","region":5.0,"population":"","latitude":-31.5,"longitude":29.2833328},
{"country":"za","city":"ku-nomcamba","accentcity":"Ku-Nomcamba","region":5.0,"population":"","latitude":-31.7106056,"longitude":29.1739635},
{"country":"za","city":"kunomcamba","accentcity":"KuNomcamba","region":5.0,"population":"","latitude":-31.75,"longitude":29.2166672},
{"country":"za","city":"kunomxhathalala","accentcity":"KuNomxhathalala","region":5.0,"population":"","latitude":-30.9740639,"longitude":29.0873528},
{"country":"za","city":"ku-nongcwengana","accentcity":"Ku-Nongcwengana","region":5.0,"population":"","latitude":-31.4808445,"longitude":28.64432},
{"country":"za","city":"ku-nonyentu","accentcity":"Ku-Nonyentu","region":5.0,"population":"","latitude":-31.6488953,"longitude":28.0832767},
{"country":"za","city":"kunonyongothi","accentcity":"KuNonyongothi","region":5.0,"population":"","latitude":-30.9710255,"longitude":29.2166939},
{"country":"za","city":"kunoxhungutshe","accentcity":"KuNoxhungutshe","region":5.0,"population":"","latitude":-30.9246235,"longitude":29.1934128},
{"country":"za","city":"kunozolisa","accentcity":"KuNozolisa","region":5.0,"population":"","latitude":-30.9350719,"longitude":29.2069187},
{"country":"za","city":"kunqumakala","accentcity":"KuNqumakala","region":5.0,"population":"","latitude":-31.7114677,"longitude":27.8052044},
{"country":"za","city":"ku-nqwati","accentcity":"Ku-Nqwati","region":5.0,"population":"","latitude":-31.709507,"longitude":28.3601913},
{"country":"za","city":"kunqwati","accentcity":"KuNqwati","region":5.0,"population":"","latitude":-31.7,"longitude":28.35},
{"country":"za","city":"kuntabankulu","accentcity":"KuNtabankulu","region":5.0,"population":"","latitude":-30.45,"longitude":28.55},
{"country":"za","city":"ku-ntabo sigogo","accentcity":"Ku-Ntabo Sigogo","region":5.0,"population":"","latitude":-31.0165768,"longitude":28.6488171},
{"country":"za","city":"kuntlamvukazi","accentcity":"KuNtlamvukazi","region":5.0,"population":"","latitude":-30.7725258,"longitude":29.6088257},
{"country":"za","city":"kuntlonze","accentcity":"KuNtlonze","region":5.0,"population":"","latitude":-31.9224663,"longitude":27.4157982},
{"country":"za","city":"ku-ntlotshe","accentcity":"Ku-Ntlotshe","region":5.0,"population":"","latitude":-31.00156,"longitude":28.6663933},
{"country":"za","city":"kuntsimba","accentcity":"KuNtsimba","region":5.0,"population":"","latitude":-31.8680077,"longitude":28.2188778},
{"country":"za","city":"kunyana","accentcity":"Kunyana","region":2.0,"population":"","latitude":-30.4585743,"longitude":30.14426},
{"country":"za","city":"ku-nyokinala","accentcity":"Ku-Nyokinala","region":5.0,"population":"","latitude":-31.64949,"longitude":28.47178},
{"country":"za","city":"ku-nyongwane","accentcity":"Ku-Nyongwane","region":5.0,"population":"","latitude":-31.1589069,"longitude":29.1649456},
{"country":"za","city":"kunyongwane","accentcity":"KuNyongwane","region":5.0,"population":"","latitude":-31.9274654,"longitude":27.4803925},
{"country":"za","city":"kupapana","accentcity":"KuPapana","region":5.0,"population":"","latitude":-30.89682,"longitude":28.95447},
{"country":"za","city":"kupapane","accentcity":"KuPapane","region":5.0,"population":"","latitude":-30.9833336,"longitude":29.0166664},
{"country":"za","city":"kuphahla","accentcity":"KuPhahla","region":5.0,"population":"","latitude":-31.67275,"longitude":27.8906517},
{"country":"za","city":"kuqengqeleka","accentcity":"KuQengqeleka","region":5.0,"population":"","latitude":-31.9333324,"longitude":28.1666679},
{"country":"za","city":"kuqoba","accentcity":"KuQoba","region":5.0,"population":"","latitude":-31.7579117,"longitude":27.8850269},
{"country":"za","city":"ku-qudu","accentcity":"Ku-Qudu","region":5.0,"population":"","latitude":-31.3,"longitude":28.6166668},
{"country":"za","city":"kuquilikawa","accentcity":"KuQuilikawa","region":5.0,"population":"","latitude":-30.8061733,"longitude":28.8076859},
{"country":"za","city":"ku-qwebeqwebe","accentcity":"Ku-Qwebeqwebe","region":5.0,"population":"","latitude":-31.89049,"longitude":27.9686432},
{"country":"za","city":"kuqwempe","accentcity":"KuQwempe","region":5.0,"population":"","latitude":-31.5333328,"longitude":27.55},
{"country":"za","city":"ku-qwempe","accentcity":"Ku-Qwempe","region":5.0,"population":"","latitude":-31.6,"longitude":27.0666676},
{"country":"za","city":"ku-raxa","accentcity":"Ku-Raxa","region":5.0,"population":"","latitude":-31.76704,"longitude":28.7297726},
{"country":"za","city":"ku-rebu","accentcity":"Ku-Rebu","region":5.0,"population":"","latitude":-31.7666664,"longitude":29.35},
{"country":"za","city":"kurees","accentcity":"Kurees","region":8.0,"population":"","latitude":-28.16345,"longitude":21.19214},
{"country":"za","city":"kurrees","accentcity":"Kurrees","region":8.0,"population":"","latitude":-28.16345,"longitude":21.19214},
{"country":"za","city":"kurulen","accentcity":"Kurulen","region":9.0,"population":"","latitude":-23.1451244,"longitude":30.35764},
{"country":"za","city":"kuruman","accentcity":"Kuruman","region":3.0,"population":"","latitude":-29.95,"longitude":27.0},
{"country":"za","city":"kuruman","accentcity":"Kuruman","region":8.0,"population":9093.0,"latitude":-27.4524021,"longitude":23.4324551},
{"country":"za","city":"kusauti","accentcity":"KuSauti","region":5.0,"population":"","latitude":-31.6166668,"longitude":27.5333328},
{"country":"za","city":"kwaxokoshe","accentcity":"KwaXokoshe","region":5.0,"population":"","latitude":-31.6158237,"longitude":28.4702625},
{"country":"za","city":"kwa-xoxo","accentcity":"Kwa-Xoxo","region":5.0,"population":"","latitude":-31.74107,"longitude":28.1089954},
{"country":"za","city":"kwaxusha","accentcity":"KwaXusha","region":5.0,"population":"","latitude":-31.7169056,"longitude":26.9171238},
{"country":"za","city":"kwayibusele","accentcity":"KwaYibusele","region":2.0,"population":"","latitude":-29.2768974,"longitude":30.8258686},
{"country":"za","city":"kwayimani","accentcity":"KwaYimani","region":5.0,"population":"","latitude":-32.15313,"longitude":28.2335281},
{"country":"za","city":"kwayoba","accentcity":"KwaYoba","region":5.0,"population":"","latitude":-30.9248676,"longitude":29.0265675},
{"country":"za","city":"kwazakele","accentcity":"KwaZakele","region":5.0,"population":"","latitude":-33.8759346,"longitude":25.5743237},
{"country":"za","city":"kwazakhele","accentcity":"KwaZakhele","region":5.0,"population":"","latitude":-33.8759346,"longitude":25.5743237},
{"country":"za","city":"kwazamazama","accentcity":"KwaZamazama","region":2.0,"population":"","latitude":-27.09994,"longitude":32.28777},
{"country":"za","city":"kwazengele","accentcity":"KwaZengele","region":5.0,"population":"","latitude":-30.677372,"longitude":28.860281},
{"country":"za","city":"kwazibukwane","accentcity":"KwaZibukwane","region":7.0,"population":"","latitude":-25.68303,"longitude":31.7996178},
{"country":"za","city":"kwazibunu","accentcity":"KwaZibunu","region":5.0,"population":"","latitude":-32.50444,"longitude":28.4107},
{"country":"za","city":"kwazondela","accentcity":"KwaZondela","region":2.0,"population":"","latitude":-28.3061638,"longitude":31.4437981},
{"country":"za","city":"kwazondi","accentcity":"KwaZondi","region":2.0,"population":"","latitude":-28.45,"longitude":30.8666668},
{"country":"za","city":"kwazulu","accentcity":"KwaZulu","region":5.0,"population":"","latitude":-30.9452782,"longitude":29.2607327},
{"country":"za","city":"kwa-zulu","accentcity":"Kwa-Zulu","region":5.0,"population":"","latitude":-31.4460964,"longitude":29.4127979},
{"country":"za","city":"kwa-zuluvuka","accentcity":"Kwa-Zuluvuka","region":2.0,"population":"","latitude":-28.2778263,"longitude":32.0223045},
{"country":"za","city":"kwa-zwelinzima","accentcity":"Kwa-Zwelinzima","region":5.0,"population":"","latitude":-31.6315746,"longitude":28.2142639},
{"country":"za","city":"kwelega","accentcity":"Kwelega","region":5.0,"population":"","latitude":-32.84937,"longitude":28.0065651},
{"country":"za","city":"kwelegha","accentcity":"Kwelegha","region":5.0,"population":"","latitude":-32.84937,"longitude":28.0065651},
{"country":"za","city":"kwelera","accentcity":"Kwelera","region":5.0,"population":"","latitude":-32.8,"longitude":27.9666672},
{"country":"za","city":"kwelesha","accentcity":"Kwelesha","region":5.0,"population":"","latitude":-31.8194389,"longitude":28.06294},